stop_id,stop_code,stop_name,stop_desc,stop_lat,stop_lon,zone_id,location_type,parent_station,stop_timezone,wheelchair_boarding,level_id,platform_code
000000009300001,93,Hlavná stanica,,48.157543182373,17.1067714691162,100,0,,,,,A
000000009300021,93,Hlavná stanica,,48.1581077575684,17.1071739196777,100,0,,,,,U
000000030600001,306,Pod stanicou,,48.1557006835938,17.1075477600098,100,0,,,,,A
000000030600002,306,Pod stanicou,,48.1562118530273,17.1073360443115,100,0,,,,,B
000000071400001,714,Úrad vlády SR,,48.1542472839355,17.1109199523926,100,0,,,,,A
000000071400002,714,Úrad vlády SR,,48.1546096801758,17.1103458404541,100,0,,,,,B
000000042200001,422,STU,,48.1510848999023,17.1158542633057,100,0,,,,,A
000000042200002,422,STU,,48.1524391174316,17.1154975891113,100,0,,,,,B
000000047300001,473,Vysoká,,48.1484756469727,17.1122550964355,100,0,,,,,A
000000047300002,473,Vysoká,,48.1487731933594,17.1129417419434,100,0,,,,,B
000000030200001,302,Poštová,,48.1466407775879,17.1085720062256,100,0,,,,,A
000000030200002,302,Poštová,,48.1472129821777,17.1097736358643,100,0,,,,,B
000000013900003,139,Centrum,,48.1448440551758,17.1122417449951,100,0,,,,,C
000000013900004,139,Centrum,,48.1452560424805,17.1115264892578,100,0,,,,,D
000000013000002,130,Jesenského,,48.1429290771484,17.1119499206543,100,0,,,,,B
000000039400001,394,Šafárikovo nám.,,48.141788482666,17.1156730651855,100,0,,,,,A
000000024800001,248,Nám. Ľ. Štúra,,48.1401863098145,17.110107421875,100,0,,,,,A
000000015600001,156,Komisárky,,48.2162284851074,17.1662120819092,101,0,,,,,A
000000015600002,156,Komisárky,,48.2162742614746,17.1665477752686,101,0,,,,,B
000000042500001,425,Púchovská,,48.2147827148438,17.1634178161621,101,0,,,,,A
000000042500002,425,Púchovská,,48.215389251709,17.1647758483887,101,0,,,,,B
000000048400001,484,Záhumenice,,48.2115631103516,17.1582355499268,101,0,,,,,A
000000048400002,484,Záhumenice,,48.2125625610352,17.1595878601074,101,0,,,,,B
000000071300001,713,Detvianska,,48.2110824584961,17.1546173095703,101,0,,,,,A
000000071300002,713,Detvianska,,48.2112617492676,17.1549072265625,101,0,,,,,B
000000011100001,111,Hybešova,,48.2082138061523,17.1509399414063,101,0,,,,,A
000000011100002,111,Hybešova,,48.2080307006836,17.1507511138916,101,0,,,,,B
000000009100001,91,Hečkova,,48.2031555175781,17.1495494842529,101,0,,,,,A
000000009100002,91,Hečkova,,48.2030487060547,17.1495685577393,101,0,,,,,B
000000003600001,36,Černockého,,48.1993637084961,17.147102355957,101,0,,,,,A
000000003600002,36,Černockého,,48.1996994018555,17.1476306915283,101,0,,,,,B
000000028700001,287,Pekná cesta,,48.1952514648438,17.1432857513428,101,0,,,,,A
000000028700002,287,Pekná cesta,,48.1957473754883,17.143949508667,101,0,,,,,B
000000026200001,262,Malokrasňanská,,48.1913414001465,17.13916015625,101,0,,,,,A
000000026200002,262,Malokrasňanská,,48.1911125183105,17.1389274597168,101,0,,,,,B
000000046500001,465,Depo Krasňany,,48.188304901123,17.1355381011963,101,0,,,,,A
000000046500002,465,Depo Krasňany,,48.1889038085938,17.1363258361816,101,0,,,,,B
000000052200001,522,Stn. Vinohrady,,48.1857528686523,17.1333179473877,100,0,,,,,A
000000052200002,522,Stn. Vinohrady,,48.1859169006348,17.1337184906006,100,0,,,,,B
000000024500001,245,Nám. Biely kríž,,48.1822090148926,17.1297435760498,100,0,,,,,A
000000024500002,245,Nám. Biely kríž,,48.1825942993164,17.1303024291992,100,0,,,,,B
000000022400001,224,Mladá garda,,48.1774291992188,17.1278533935547,100,0,,,,,A
000000022400002,224,Mladá garda,,48.1779136657715,17.1281814575195,100,0,,,,,B
000000033700001,337,Riazanská,,48.173168182373,17.1272010803223,100,0,,,,,A
000000033700002,337,Riazanská,,48.1743774414063,17.1274929046631,100,0,,,,,B
000000029300001,293,Pionierska,,48.1679267883301,17.12744140625,100,0,,,,,A
000000029300002,293,Pionierska,,48.1694107055664,17.1272926330566,100,0,,,,,B
000000044600001,446,Ursínyho,,48.1619873046875,17.1237831115723,100,0,,,,,A
000000044600002,446,Ursínyho,,48.1624603271484,17.1242504119873,100,0,,,,,B
000000033200001,332,Račianske mýto,,48.1580009460449,17.1205291748047,100,0,,,,,A
000000033200002,332,Račianske mýto,,48.1585159301758,17.121057510376,100,0,,,,,B
000000008000001,80,Blumentál,,48.1533737182617,17.1187610626221,100,0,,,,,A
000000008000002,80,Blumentál,,48.1539764404297,17.1189918518066,100,0,,,,,B
000000000300001,3,Americké nám.,,48.1508674621582,17.1179046630859,100,0,,,,,A
000000000300002,3,Americké nám.,,48.1515846252441,17.1180953979492,100,0,,,,,B
000000020900001,209,Mariánska,,48.1483612060547,17.1164817810059,100,0,,,,,A
000000020900002,209,Mariánska,,48.1473808288574,17.1155910491943,100,0,,,,,B
000000013900001,139,Centrum,,48.1458778381348,17.1137886047363,100,0,,,,,A
000000013900002,139,Centrum,,48.1455535888672,17.1135902404785,100,0,,,,,B
000000039400002,394,Šafárikovo nám.,,48.1412467956543,17.116247177124,100,0,,,,,B
000000034800002,348,Sad Janka Kráľa,,48.1352806091309,17.1169567108154,100,0,,,,,B
000000034800001,348,Sad Janka Kráľa,,48.1357765197754,17.1170787811279,100,0,,,,,A
000000007900002,79,Farského,,48.1271705627441,17.1167469024658,100,0,,,,,B
000000007900001,79,Farského,,48.1277275085449,17.1168823242188,100,0,,,,,A
000000013200004,132,Jungmannova,,48.1244506835938,17.1149196624756,100,0,,,,,D
000000013200003,132,Jungmannova,,48.1249084472656,17.1154193878174,100,0,,,,,C
000000031000001,310,Pri kríži,,48.1945915222168,17.0339794158936,101,0,,,,,A
000000031000002,310,Pri kríži,,48.1950416564941,17.033863067627,101,0,,,,,B
000000026500001,265,Podvornice,,48.1916770935059,17.0351276397705,101,0,,,,,A
000000026500002,265,Podvornice,,48.1922225952148,17.0349979400635,101,0,,,,,B
000000006800001,68,Drobného,,48.1878814697266,17.0366401672363,101,0,,,,,A
000000006800002,68,Drobného,,48.1887359619141,17.0363349914551,101,0,,,,,B
000000000100001,1,Alexyho,,48.1845016479492,17.037914276123,101,0,,,,,A
000000000100002,1,Alexyho,,48.186164855957,17.0373249053955,101,0,,,,,B
000000041800001,418,Švantnerova,,48.1816596984863,17.0407848358154,101,0,,,,,A
000000041800002,418,Švantnerova,,48.1826324462891,17.0396614074707,101,0,,,,,B
000000005100001,51,Záluhy,,48.1793937683105,17.0436992645264,101,0,,,,,A
000000005100002,51,Záluhy,,48.1798896789551,17.0431365966797,101,0,,,,,B
000000009800001,98,Horné Krčace,,48.1736259460449,17.0491752624512,101,0,,,,,A
000000009800002,98,Horné Krčace,,48.1741905212402,17.0491313934326,101,0,,,,,B
000000006000001,60,Dolné Krčace,,48.1703643798828,17.0494174957275,101,0,,,,,A
000000006000002,60,Dolné Krčace,,48.170970916748,17.0495491027832,101,0,,,,,B
000000014300001,143,Kútiky,,48.1644859313965,17.0468101501465,100,0,,,,,A
000000014300002,143,Kútiky,,48.1651191711426,17.0465393066406,100,0,,,,,B
000000001900001,19,Borská,,48.1621360778809,17.0485343933105,100,0,,,,,A
000000001900002,19,Borská,,48.162712097168,17.0482311248779,100,0,,,,,B
000000018000001,180,Nám. sv. Františka,,48.1587257385254,17.0515804290771,100,0,,,,,A
000000018000002,180,Nám. sv. Františka,,48.1593055725098,17.0513286590576,100,0,,,,,B
000000024000001,240,Nad lúčkami,,48.1559829711914,17.0535469055176,100,0,,,,,A
000000024000002,240,Nad lúčkami,,48.1565361022949,17.0532913208008,100,0,,,,,B
000000035300001,353,Segnerova,,48.1533432006836,17.0591583251953,100,0,,,,,A
000000035300002,353,Segnerova,,48.1536407470703,17.0582828521729,100,0,,,,,B
000000023000001,230,Riviéra,,48.1493911743164,17.0631408691406,100,0,,,,,A
000000023000002,230,Riviéra,,48.1498336791992,17.0629081726074,100,0,,,,,B
000000002100001,21,Botanická záhrada,,48.1480903625488,17.0719718933105,100,0,,,,,A
000000002100002,21,Botanická záhrada,,48.148193359375,17.0724449157715,100,0,,,,,B
000000018100001,181,Lanfranconi,,48.1452293395996,17.0780506134033,100,0,,,,,A
000000018100002,181,Lanfranconi,,48.1452102661133,17.0781898498535,100,0,,,,,B
000000028100001,281,Kráľovské údolie,,48.1428985595703,17.0847930908203,100,0,,,,,A
000000028100002,281,Kráľovské údolie,,48.1429061889648,17.0849914550781,100,0,,,,,B
000000043900001,439,Chatam Sófer,,48.1408882141113,17.0930595397949,100,0,,,,,A
000000043900002,439,Chatam Sófer,,48.1412887573242,17.0924606323242,100,0,,,,,B
000000026100001,261,Most SNP,,48.139762878418,17.1056499481201,100,0,,,,,A
000000026100002,261,Most SNP,,48.139820098877,17.1051902770996,100,0,,,,,B
000000024800004,248,Nám. Ľ. Štúra,,48.1401824951172,17.1095848083496,100,0,,,,,D
000000000300004,3,Americké nám.,,48.1522827148438,17.1205043792725,100,0,,,,,D
000000000300003,3,Americké nám.,,48.150806427002,17.1180820465088,100,0,,,,,C
000000017300002,173,Krížna,,48.1549797058105,17.124059677124,100,0,,,,,B
000000017300001,173,Krížna,,48.1546783447266,17.123685836792,100,0,,,,,A
000000043700002,437,Trnavské mýto,,48.1578369140625,17.1275081634521,100,0,,,,,B
000000043700001,437,Trnavské mýto,,48.1574859619141,17.1269702911377,100,0,,,,,A
000000026700002,267,Česká,,48.1620254516602,17.131799697876,100,0,,,,,B
000000026700001,267,Česká,,48.1616325378418,17.131368637085,100,0,,,,,A
000000025700002,257,Nová doba,,48.1650314331055,17.1347351074219,100,0,,,,,B
000000025700001,257,Nová doba,,48.1646728515625,17.13427734375,100,0,,,,,A
000000021300002,213,MiÚ Nové Mesto,,48.1686134338379,17.1381664276123,100,0,,,,,B
000000021300001,213,MiÚ Nové Mesto,,48.168514251709,17.1380596160889,100,0,,,,,A
000000048800002,488,Kuchajda,,48.1719627380371,17.141450881958,100,0,,,,,B
000000048800001,488,Kuchajda,,48.1714172363281,17.1407508850098,100,0,,,,,A
000000051500002,515,Stn. Nové Mesto,,48.171516418457,17.1454315185547,100,0,,,,,B
000000051500001,515,Stn. Nové Mesto,,48.1719284057617,17.1452312469482,100,0,,,,,A
000000026800002,268,Odborárska,,48.1767311096191,17.1463375091553,100,0,,,,,B
000000026800001,268,Odborárska,,48.176399230957,17.1456775665283,100,0,,,,,A
000000020500002,205,Magnetová,,48.179874420166,17.1545238494873,100,0,,,,,B
000000020500001,205,Magnetová,,48.1793441772461,17.1527633666992,100,0,,,,,A
000000046400002,464,Depo Jurajov dvor,,48.1812400817871,17.1615428924561,100,0,,,,,B
000000046400001,464,Depo Jurajov dvor,,48.1815872192383,17.1613388061523,100,0,,,,,A
000000052200004,522,Stn. Vinohrady,,48.1859893798828,17.1331157684326,100,0,,,,,D
000000009300022,93,Hlavná stanica,,48.1580619812012,17.1072006225586,100,0,,,,,V
000000009300002,93,Hlavná stanica,,48.1576194763184,17.1068344116211,100,0,,,,,B
000000014100001,141,Kapucínska,,48.1450958251953,17.1054019927979,100,0,,,,,A
000000014100002,141,Kapucínska,,48.144889831543,17.1047821044922,100,0,,,,,B
000000043700004,437,Trnavské mýto,,48.1577796936035,17.1275825500488,100,0,,,,,D
000000048200002,482,Saleziáni,,48.1551666259766,17.1339492797852,100,0,,,,,B
000000048200001,482,Saleziáni,,48.155647277832,17.1334209442139,100,0,,,,,A
000000023400002,234,Líščie nivy,,48.1559371948242,17.1425914764404,100,0,,,,,B
000000023400001,234,Líščie nivy,,48.1557464599609,17.1406764984131,100,0,,,,,A
000000030800002,308,Nemocnica Ružinov,,48.1567344665527,17.1522769927979,100,0,,,,,B
000000030800001,308,Nemocnica Ružinov,,48.1566925048828,17.1513843536377,100,0,,,,,A
000000009200002,92,Herlianska,,48.157039642334,17.1563758850098,100,0,,,,,B
000000009200001,92,Herlianska,,48.1570205688477,17.1548404693604,100,0,,,,,A
000000043200002,432,Tomášikova,,48.1574325561523,17.161792755127,100,0,,,,,B
000000043200001,432,Tomášikova,,48.1573829650879,17.1600379943848,100,0,,,,,A
000000039100002,391,Súmračná,,48.1579666137695,17.1693515777588,100,0,,,,,B
000000039100001,391,Súmračná,,48.1579284667969,17.1674880981445,100,0,,,,,A
000000011500002,115,Chlumeckého,,48.1583862304688,17.1751861572266,100,0,,,,,B
000000011500001,115,Chlumeckého,,48.1583061218262,17.1733055114746,100,0,,,,,A
000000000600002,6,Astronomická,,48.1585731506348,17.1771125793457,100,0,,,,,B
000000000600001,6,Astronomická,,48.158561706543,17.1763248443604,100,0,,,,,A
000000017500001,175,Dlhé diely,,48.1567649841309,17.0452671051025,100,0,,,,,A
000000017500002,175,Dlhé diely,,48.1573028564453,17.0450038909912,100,0,,,,,B
000000050300001,503,ZŠ Majerníkova,,48.1542778015137,17.0458984375,100,0,,,,,A
000000050300002,503,ZŠ Majerníkova,,48.1548957824707,17.0461292266846,100,0,,,,,B
000000021200001,212,Matejkova,,48.1518859863281,17.0481948852539,100,0,,,,,A
000000021200002,212,Matejkova,,48.1520042419434,17.0475769042969,100,0,,,,,B
000000043100001,431,Tománkova,,48.1511726379395,17.0516548156738,100,0,,,,,A
000000043100002,431,Tománkova,,48.1518630981445,17.050910949707,100,0,,,,,B
000000008900001,89,Hany Meličkovej,,48.149543762207,17.0543880462646,100,0,,,,,A
000000008900002,89,Hany Meličkovej,,48.1496849060059,17.0533561706543,100,0,,,,,B
000000031300001,313,Pri podchode,,48.1493263244629,17.056188583374,100,0,,,,,A
000000031300002,313,Pri podchode,,48.149845123291,17.0565242767334,100,0,,,,,B
000000012400001,124,Janotova,,48.1494522094727,17.0581836700439,100,0,,,,,A
000000012400002,124,Janotova,,48.1488761901855,17.0573883056641,100,0,,,,,B
000000023000003,230,Riviéra,,48.1494750976563,17.0629062652588,100,0,,,,,C
000000023000004,230,Riviéra,,48.1498718261719,17.063009262085,100,0,,,,,D
000000009300006,93,Hlavná stanica,,48.157299041748,17.1063346862793,100,0,,,,,F
000000009300025,93,Hlavná stanica,,48.157886505127,17.1065864562988,100,0,,,,,Y
000000030600004,306,Pod stanicou,,48.1556434631348,17.1090240478516,100,0,,,,,D
000000014400001,144,Karpatská,,48.1565856933594,17.1138820648193,100,0,,,,,A
000000014400002,144,Karpatská,,48.1564559936523,17.1123924255371,100,0,,,,,B
000000033200005,332,Račianske mýto,,48.1569137573242,17.121301651001,100,0,,,,,E
000000033200006,332,Račianske mýto,,48.1572227478027,17.1207809448242,100,0,,,,,F
000000017300005,173,Krížna,,48.1549835205078,17.125129699707,100,0,,,,,E
000000017300006,173,Krížna,,48.1546592712402,17.1255474090576,100,0,,,,,F
000000040200001,402,Šoltésovej,,48.1501007080078,17.1251926422119,100,0,,,,,A
000000040200002,402,Šoltésovej,,48.151008605957,17.12575340271,100,0,,,,,B
000000022800002,228,Malý trh,,48.1481513977051,17.1247177124023,100,0,,,,,B
000000000500003,5,Autobusová stanica,,48.1469764709473,17.126335144043,100,0,,,,,C
000000000500004,5,Autobusová stanica,,48.1467208862305,17.1262664794922,100,0,,,,,D
000000004600001,46,Čulenova,,48.1439018249512,17.1226367950439,100,0,,,,,A
000000004600002,46,Čulenova,,48.1446304321289,17.123420715332,100,0,,,,,B
000000060700003,607,Nové SND,,48.141185760498,17.1219635009766,100,0,,,,,C
000000022200003,222,Miletičova,,48.1479034423828,17.1412982940674,100,0,,,,,C
000000046200001,462,Červený most,,48.1713829040527,17.0731754302979,100,0,,,,,A
000000046200002,462,Červený most,,48.1715698242188,17.0735530853271,100,0,,,,,B
000000028400001,284,Patrónka,,48.1684112548828,17.0767230987549,100,0,,,,,A
000000028400002,284,Patrónka,,48.1691703796387,17.0760879516602,100,0,,,,,B
000000031500001,315,Suchý mlyn,,48.1675682067871,17.0806579589844,100,0,,,,,A
000000031500002,315,Suchý mlyn,,48.1677703857422,17.080020904541,100,0,,,,,B
000000016400001,164,Nemocnica Kramáre,,48.1676368713379,17.0894050598145,100,0,,,,,A
000000016400002,164,Nemocnica Kramáre,,48.1677932739258,17.0884170532227,100,0,,,,,B
000000020600001,206,Magurská,,48.1664772033691,17.0934829711914,100,0,,,,,A
000000020600002,206,Magurská,,48.1669387817383,17.0928707122803,100,0,,,,,B
000000001100001,11,Bárdošova,,48.1650238037109,17.0958843231201,100,0,,,,,A
000000001100002,11,Bárdošova,,48.165943145752,17.0944862365723,100,0,,,,,B
000000038800002,388,Stromová,,48.1637535095215,17.0981273651123,100,0,,,,,B
000000036800001,368,Sokolská,,48.1581611633301,17.1046104431152,100,0,,,,,A
000000036800002,368,Sokolská,,48.1591567993164,17.1044273376465,100,0,,,,,B
000000030600005,306,Pod stanicou,,48.1539421081543,17.1061363220215,100,0,,,,,E
000000030600006,306,Pod stanicou,,48.1548194885254,17.1061992645264,100,0,,,,,F
000000009500001,95,Hodžovo nám.,,48.1481628417969,17.1083030700684,100,0,,,,,A
000000009500002,95,Hodžovo nám.,,48.1485557556152,17.1082935333252,100,0,,,,,B
000000015200001,152,Kollárovo nám.,,48.1492805480957,17.1127071380615,100,0,,,,,A
000000015200002,152,Kollárovo nám.,,48.1499710083008,17.1129283905029,100,0,,,,,B
000000040300001,403,Špitálska,,48.1492767333984,17.1182098388672,100,0,,,,,A
000000040300002,403,Špitálska,,48.1492538452148,17.1186332702637,100,0,,,,,B
000000003300003,33,Ondrejský cintorín,,48.148250579834,17.1207962036133,100,0,,,,,C
000000044400002,444,29. augusta,,48.1466178894043,17.1225357055664,100,0,,,,,B
000000000500002,5,Autobusová stanica,,48.1461181640625,17.1265621185303,100,0,,,,,B
000000000500001,5,Autobusová stanica,,48.1464042663574,17.1264247894287,100,0,,,,,A
000000016000002,160,Košická,,48.1453704833984,17.1331005096436,100,0,,,,,B
000000016000001,160,Košická,,48.1459732055664,17.1303405761719,100,0,,,,,A
000000025800002,258,Novohradská,,48.1465110778809,17.138879776001,100,0,,,,,B
000000025800001,258,Novohradská,,48.1462478637695,17.1372928619385,100,0,,,,,A
000000022200002,222,Miletičova,,48.1473159790039,17.1422309875488,100,0,,,,,B
000000022200001,222,Miletičova,,48.1470756530762,17.1405067443848,100,0,,,,,A
000000032500002,325,Prievozská,,48.1489524841309,17.1509342193604,100,0,,,,,B
000000032500001,325,Prievozská,,48.1486473083496,17.1473960876465,100,0,,,,,A
000000028500001,285,Pažítková,,48.1494674682617,17.15305519104,100,0,,,,,A
000000010400006,104,Hraničná,,48.1493034362793,17.156831741333,100,0,,,,,F
000000006900002,69,Búdková,,48.1533470153809,17.0911178588867,100,0,,,,,B
000000009300026,93,Hlavná stanica,,48.157886505127,17.1064205169678,100,0,,,,,Z
000000030600008,306,Pod stanicou,,48.1554145812988,17.106424331665,100,0,,,,,H
000000010600002,106,Hroboňova,,48.1632843017578,17.0923080444336,100,0,,,,,B
000000010600001,106,Hroboňova,,48.1630554199219,17.0918865203857,100,0,,,,,A
000000033000001,330,Prokopa Veľkého,,48.1630973815918,17.0886192321777,100,0,,,,,A
000000000400004,4,Depo Hroboňova,,48.1607208251953,17.08669090271,100,0,,,,,D
000000000400003,4,Depo Hroboňova,,48.1604690551758,17.0863094329834,100,0,,,,,C
000000056000002,560,Súbežná,,48.161018371582,17.0828113555908,100,0,,,,,B
000000056000001,560,Súbežná,,48.1607627868652,17.0834712982178,100,0,,,,,A
000000060800002,608,Bubnovka,,48.1611671447754,17.0795783996582,100,0,,,,,B
000000060800001,608,Bubnovka,,48.1611480712891,17.0796222686768,100,0,,,,,A
000000036000002,360,Slov. nár. archív,,48.1598434448242,17.0795440673828,100,0,,,,,B
000000036000001,360,Slov. nár. archív,,48.1599502563477,17.0796089172363,100,0,,,,,A
000000039500002,395,Šafranová,,48.1573905944824,17.0810070037842,100,0,,,,,B
000000039500001,395,Šafranová,,48.1571998596191,17.0813541412354,100,0,,,,,A
000000056100002,561,Prvosienková,,48.1549491882324,17.084810256958,100,0,,,,,B
000000056100001,561,Prvosienková,,48.1553344726563,17.0840816497803,100,0,,,,,A
000000061800002,618,Na hrebienku,,48.1538467407227,17.0874195098877,100,0,,,,,B
000000061800001,618,Na hrebienku,,48.1535987854004,17.0882301330566,100,0,,,,,A
000000006900001,69,Búdková,,48.1527786254883,17.0915660858154,100,0,,,,,A
000000006900004,69,Búdková,,48.1530075073242,17.0916500091553,100,0,,,,,D
000000003800001,38,Červený kríž,,48.1498947143555,17.0903778076172,100,0,,,,,A
000000003800002,38,Červený kríž,,48.1494827270508,17.0902481079102,100,0,,,,,B
000000012300001,123,Jančova,,48.147891998291,17.0891723632813,100,0,,,,,A
000000010900002,109,Hummelova,,48.1473846435547,17.089334487915,100,0,,,,,B
000000033500001,335,Radvanská,,48.1461448669434,17.091423034668,100,0,,,,,A
000000033500002,335,Radvanská,,48.1459655761719,17.0921001434326,100,0,,,,,B
000000011900001,119,Inovecká,,48.1437721252441,17.0950546264648,100,0,,,,,A
000000011900002,119,Inovecká,,48.1442947387695,17.0948390960693,100,0,,,,,B
000000010100001,101,Hrad,,48.1424446105957,17.0972366333008,100,0,,,,,A
000000010100002,101,Hrad,,48.1429862976074,17.0962753295898,100,0,,,,,B
000000048600001,486,Zámocká,,48.1436500549316,17.0987033843994,100,0,,,,,A
000000048600002,486,Zámocká,,48.1433448791504,17.0986328125,100,0,,,,,B
000000028200001,282,Svoradova,,48.145637512207,17.099084854126,100,0,,,,,A
000000028200002,282,Svoradova,,48.146125793457,17.0992164611816,100,0,,,,,B
000000016300001,163,Kozia,,48.1481971740723,17.1011447906494,100,0,,,,,A
000000016300002,163,Kozia,,48.1483840942383,17.1013088226318,100,0,,,,,B
000000025000002,250,Prezident. záhrada,,48.151237487793,17.1103992462158,100,0,,,,,B
000000025000001,250,Prezident. záhrada,,48.1510467529297,17.1106624603271,100,0,,,,,A
000000071400004,714,Úrad vlády SR,,48.1536331176758,17.1106033325195,100,0,,,,,D
000000071400003,714,Úrad vlády SR,,48.1537818908691,17.1106281280518,100,0,,,,,C
000000014400004,144,Karpatská,,48.1573143005371,17.11350440979,100,0,,,,,D
000000014400003,144,Karpatská,,48.1569671630859,17.1133193969727,100,0,,,,,C
000000044000002,440,Tupého,,48.1609573364258,17.1147727966309,100,0,,,,,B
000000044000001,440,Tupého,,48.1621437072754,17.1148986816406,100,0,,,,,A
000000012900002,129,Jeséniova,,48.1654586791992,17.113920211792,100,0,,,,,B
000000012900001,129,Jeséniova,,48.165699005127,17.1136054992676,100,0,,,,,A
000000004500002,45,Čremchová,,48.1689987182617,17.1105213165283,100,0,,,,,B
000000004500001,45,Čremchová,,48.1686019897461,17.1109600067139,100,0,,,,,A
000000011000002,110,Husova,,48.1697463989258,17.1080341339111,100,0,,,,,B
000000011000001,110,Husova,,48.1696929931641,17.107931137085,100,0,,,,,A
000000015100002,151,Koliba,,48.1712341308594,17.1025695800781,100,0,,,,,B
000000015100001,151,Koliba,,48.1712646484375,17.102087020874,100,0,,,,,A
000000009900002,99,Horský park,,48.1562385559082,17.088415145874,100,0,,,,,B
000000009900001,99,Horský park,,48.1559562683105,17.0885391235352,100,0,,,,,A
000000000400002,4,Depo Hroboňova,,48.1598472595215,17.0864067077637,100,0,,,,,B
000000000400001,4,Depo Hroboňova,,48.1605491638184,17.0852928161621,100,0,,,,,A
000000019800004,198,Lovinského,,48.163215637207,17.0815963745117,100,0,,,,,D
000000019800001,198,Lovinského,,48.1626853942871,17.0818824768066,100,0,,,,,A
000000045200002,452,Valašská,,48.1663360595703,17.0797576904297,100,0,,,,,B
000000045200001,452,Valašská,,48.1661224365234,17.0787944793701,100,0,,,,,A
000000057400002,574,Tesco Lamač,,48.1764335632324,17.0656585693359,101,0,,,,,B
000000022900001,229,Mokrohájska,,48.1730651855469,17.068567276001,100,0,,,,,A
000000045900001,459,Vlárska,,48.1696548461914,17.0911712646484,100,0,,,,,A
000000045900002,459,Vlárska,,48.1697540283203,17.09108543396,100,0,,,,,B
000000014900001,149,Klenová,,48.1707458496094,17.0926551818848,100,0,,,,,A
000000014900002,149,Klenová,,48.1708793640137,17.0931091308594,100,0,,,,,B
000000025200001,252,Nár. onkol. ústav,,48.172233581543,17.0914535522461,100,0,,,,,A
000000025200002,252,Nár. onkol. ústav,,48.1720695495605,17.0915451049805,100,0,,,,,B
000000011400001,114,Hýrošova,,48.1659088134766,17.0782947540283,100,0,,,,,A
000000045200003,452,Valašská,,48.1652755737305,17.0795650482178,100,0,,,,,C
000000000300006,3,Americké nám.,,48.1500701904297,17.1159896850586,100,0,,,,,F
000000000300005,3,Americké nám.,,48.1509780883789,17.118143081665,100,0,,,,,E
000000014200002,142,Karadžičova,,48.1534118652344,17.1244831085205,100,0,,,,,B
000000014200001,142,Karadžičova,,48.1533432006836,17.1241607666016,100,0,,,,,A
000000017900002,179,Kvačalova,,48.154167175293,17.1294727325439,100,0,,,,,B
000000017900001,179,Kvačalova,,48.1542816162109,17.129487991333,100,0,,,,,A
000000048200004,482,Saleziáni,,48.1546669006348,17.1334056854248,100,0,,,,,D
000000048200003,482,Saleziáni,,48.1547317504883,17.1330413818359,100,0,,,,,C
000000049500004,495,TIPOS Aréna,,48.1588134765625,17.135778427124,100,0,,,,,D
000000049500003,495,TIPOS Aréna,,48.1585083007813,17.1355018615723,100,0,,,,,C
000000010400002,104,Hraničná,,48.1497688293457,17.1594905853271,100,0,,,,,B
000000010400001,104,Hraničná,,48.1498336791992,17.1588249206543,100,0,,,,,A
000000008200002,82,Gagarinova,,48.1502571105957,17.1679096221924,100,0,,,,,B
000000008200001,82,Gagarinova,,48.1502342224121,17.1651229858398,100,0,,,,,A
000000002300002,23,Brodná,,48.1505737304688,17.1728515625,100,0,,,,,B
000000002300001,23,Brodná,,48.1505699157715,17.1715240478516,100,0,,,,,A
000000027100002,271,Ondrejovova,,48.1507263183594,17.1760425567627,100,0,,,,,B
000000027100001,271,Ondrejovova,,48.1508293151855,17.1747894287109,100,0,,,,,A
000000033800002,338,Ríbezľová,,48.1462554931641,17.1857204437256,100,0,,,,,B
000000033800001,338,Ríbezľová,,48.1473426818848,17.1849212646484,100,0,,,,,A
000000003200004,32,Cintorín Vrakuňa,,48.1424598693848,17.1906642913818,100,0,,,,,D
000000003200003,32,Cintorín Vrakuňa,,48.1430435180664,17.1906147003174,100,0,,,,,C
000000032100002,321,Priekopnícka,,48.1369171142578,17.1969585418701,101,0,,,,,B
000000032100001,321,Priekopnícka,,48.1371002197266,17.195707321167,101,0,,,,,A
000000015500002,155,Komárovská,,48.1368446350098,17.2029361724854,101,0,,,,,B
000000015500001,155,Komárovská,,48.1371879577637,17.2000770568848,101,0,,,,,A
000000043400002,434,Toryská,,48.1359443664551,17.2056331634521,101,0,,,,,B
000000043400001,434,Toryská,,48.1364440917969,17.2052783966064,101,0,,,,,A
000000010700002,107,Hronská,,48.1358909606934,17.209716796875,101,0,,,,,B
000000010700001,107,Hronská,,48.1357383728027,17.208740234375,101,0,,,,,A
000000007100002,71,Dudvážska,,48.1377792358398,17.2140045166016,101,0,,,,,B
000000007100001,71,Dudvážska,,48.1376037597656,17.2130031585693,101,0,,,,,A
000000051200001,512,Žitavská,,48.1417808532715,17.2143707275391,101,0,,,,,A
000000004200002,42,Čiližská,,48.1439399719238,17.2128887176514,101,0,,,,,B
000000004200001,42,Čiližská,,48.1445159912109,17.2123374938965,101,0,,,,,A
000000039200001,392,NÚSCH,,48.170108795166,17.0875282287598,100,0,,,,,A
000000045900003,459,Vlárska,,48.1693534851074,17.0905151367188,100,0,,,,,C
000000045900004,459,Vlárska,,48.16943359375,17.0904941558838,100,0,,,,,D
000000033200004,332,Račianske mýto,,48.1577949523926,17.1219348907471,100,0,,,,,D
000000033200003,332,Račianske mýto,,48.1578063964844,17.1195201873779,100,0,,,,,C
000000043700006,437,Trnavské mýto,,48.1580696105957,17.1268558502197,100,0,,,,,F
000000043700005,437,Trnavské mýto,,48.1582565307617,17.1265983581543,100,0,,,,,E
000000048200006,482,Saleziáni,,48.1550445556641,17.1338310241699,100,0,,,,,F
000000048200005,482,Saleziáni,,48.1553039550781,17.1336517333984,100,0,,,,,E
000000058200004,582,Trhovisko,,48.1522064208984,17.1373233795166,100,0,,,,,D
000000058200001,582,Trhovisko,,48.1535453796387,17.135913848877,100,0,,,,,A
000000034500002,345,Ružová dolina,,48.1518440246582,17.1400260925293,100,0,,,,,B
000000034500001,345,Ružová dolina,,48.1516304016113,17.1391887664795,100,0,,,,,A
000000022500004,225,Mliekarenská,,48.1534767150879,17.1445999145508,100,0,,,,,D
000000022500003,225,Mliekarenská,,48.1535148620605,17.1439723968506,100,0,,,,,C
000000033300004,333,Rádiová,,48.1738319396973,17.1663951873779,100,0,,,,,D
000000033300003,333,Rádiová,,48.1740531921387,17.1662483215332,100,0,,,,,C
000000033300001,333,Rádiová,,48.1742286682129,17.1661701202393,100,0,,,,,A
000000033300002,333,Rádiová,,48.1741905212402,17.1664009094238,100,0,,,,,B
000000002600001,26,Bulharská,,48.1721611022949,17.1683883666992,100,0,,,,,A
000000002600002,26,Bulharská,,48.1716346740723,17.1681632995605,100,0,,,,,B
000000037300001,373,Spoločenská,,48.1704139709473,17.1657180786133,100,0,,,,,A
000000037300002,373,Spoločenská,,48.1701431274414,17.1653671264648,100,0,,,,,B
000000008800001,88,Hanácka,,48.1690559387207,17.1612682342529,100,0,,,,,A
000000008800002,88,Hanácka,,48.1686553955078,17.1616039276123,100,0,,,,,B
000000036100001,361,Slovinská,,48.1693344116211,17.1576881408691,100,0,,,,,A
000000036100002,361,Slovinská,,48.170108795166,17.1589756011963,100,0,,,,,B
000000011700001,117,Klientske centrum,,48.1650314331055,17.149320602417,100,0,,,,,A
000000011700002,117,Klientske centrum,,48.1645927429199,17.1490020751953,100,0,,,,,B
000000034700001,347,Sabinovská,,48.1632270812988,17.144998550415,100,0,,,,,A
000000034700002,347,Sabinovská,,48.1631278991699,17.1453838348389,100,0,,,,,B
000000000800001,8,Bajkalská,,48.1617546081543,17.14133644104,100,0,,,,,A
000000000800002,8,Bajkalská,,48.1616058349609,17.1417694091797,100,0,,,,,B
000000049500002,495,TIPOS Aréna,,48.1594848632813,17.1364727020264,100,0,,,,,B
000000017700002,177,Kulíškova,,48.1513481140137,17.1295852661133,100,0,,,,,B
000000017700001,177,Kulíškova,,48.1521072387695,17.1293601989746,100,0,,,,,A
000000028000002,280,Cvernovka,,48.1481285095215,17.1306419372559,100,0,,,,,B
000000028000001,280,Cvernovka,,48.1481590270996,17.1308193206787,100,0,,,,,A
000000016000003,160,Košická,,48.1464080810547,17.1314907073975,100,0,,,,,C
000000003300001,33,Ondrejský cintorín,,48.1476783752441,17.1206016540527,100,0,,,,,A
000000033600001,336,Rajská,,48.1464233398438,17.1169910430908,100,0,,,,,A
000000033600002,336,Rajská,,48.1461563110352,17.1161842346191,100,0,,,,,B
000000018900003,189,Letisko / Airport,,48.1709175109863,17.2004566192627,101,0,,,,,C
000000018900006,189,Letisko / Airport,,48.1700744628906,17.1992092132568,101,0,,,,,F
000000074700001,747,Fafruny,,48.1720275878906,17.1948852539063,101,0,,,,,A
000000074700002,747,Fafruny,,48.1717414855957,17.1959209442139,101,0,,,,,B
000000048300001,483,Pri letisku,,48.1713600158691,17.1897640228271,101,0,,,,,A
000000048300002,483,Pri letisku,,48.1715240478516,17.1926383972168,101,0,,,,,B
000000029000001,290,"Avion, IKEA",,48.1694641113281,17.1817836761475,101,0,,,,,A
000000029000002,290,"Avion, IKEA",,48.1690826416016,17.1812782287598,101,0,,,,,B
000000055300001,553,Avion Shop. Park,,48.1663665771484,17.1788368225098,101,0,,,,,A
000000055300004,553,Avion Shop. Park,,48.1677513122559,17.1782283782959,101,0,,,,,D
000000008300002,83,Ivanská cesta,,48.168628692627,17.1766014099121,100,0,,,,,B
000000037400001,374,Na križovatkách,,48.1711730957031,17.1745719909668,100,0,,,,,A
000000037400002,374,Na križovatkách,,48.1702919006348,17.1750106811523,100,0,,,,,B
000000031800001,318,Pri zvonici,,48.1730842590332,17.1708602905273,100,0,,,,,A
000000031800002,318,Pri zvonici,,48.1733818054199,17.1715755462646,100,0,,,,,B
000000002600005,26,Bulharská,,48.1720695495605,17.1689071655273,100,0,,,,,E
000000049500001,495,TIPOS Aréna,,48.1589622497559,17.134464263916,100,0,,,,,A
000000009300004,93,Hlavná stanica,,48.157283782959,17.1061515808105,100,0,,,,,D
000000012800002,128,Jelačičova,,48.1563415527344,17.1299133300781,100,0,,,,,B
000000012800001,128,Jelačičova,,48.156494140625,17.1301040649414,100,0,,,,,A
000000009300024,93,Hlavná stanica,,48.1580352783203,17.1060390472412,100,0,,,,,X
000000043600001,436,Trenčianska,,48.1509780883789,17.1390857696533,100,0,,,,,A
000000035700003,357,Cintorín Slávičie,,48.1578483581543,17.0687942504883,100,0,,,,,C
000000035700001,357,Cintorín Slávičie,,48.1582450866699,17.0682907104492,100,0,,,,,A
000000066200001,662,Rudolfa Mocka,,48.1616516113281,17.0671215057373,100,0,,,,,A
000000066200002,662,Rudolfa Mocka,,48.1615333557129,17.0673809051514,100,0,,,,,B
000000065700001,657,Vretenová,,48.1625213623047,17.0626220703125,100,0,,,,,A
000000065700002,657,Vretenová,,48.162410736084,17.0623149871826,100,0,,,,,B
000000065800001,658,Na Sitine,,48.1611480712891,17.0610103607178,100,0,,,,,A
000000065800002,658,Na Sitine,,48.1613121032715,17.0610904693604,100,0,,,,,B
000000066400001,664,Nad vinicami,,48.1595458984375,17.0621929168701,100,0,,,,,A
000000066400002,664,Nad vinicami,,48.159725189209,17.062141418457,100,0,,,,,B
000000065900001,659,Bedľová,,48.1574096679688,17.0638198852539,100,0,,,,,A
000000065900002,659,Bedľová,,48.1575508117676,17.0638809204102,100,0,,,,,B
000000066100001,661,Tôňava,,48.1534805297852,17.0654029846191,100,0,,,,,A
000000066100002,661,Tôňava,,48.1537170410156,17.0654487609863,100,0,,,,,B
000000066000001,660,Panoráma,,48.1507339477539,17.0663661956787,100,0,,,,,A
000000066000002,660,Panoráma,,48.1512336730957,17.0662670135498,100,0,,,,,B
000000065600002,656,Hájnická,,48.1506309509277,17.0644035339355,100,0,,,,,B
000000013400004,134,Jurigovo nám.,,48.1529159545898,17.0619068145752,100,0,,,,,D
000000071900002,719,Koliba P+R,,48.1748046875,17.1007881164551,100,0,,,,,B
000000064100001,641,Kamzík,,48.1818923950195,17.0980472564697,100,0,,,,,A
000000064700001,647,Júlová,,48.1685333251953,17.0976753234863,100,0,,,,,A
000000064700002,647,Júlová,,48.1683731079102,17.0980663299561,100,0,,,,,B
000000058500001,585,Na Revíne,,48.1685371398926,17.0958156585693,100,0,,,,,A
000000058500002,585,Na Revíne,,48.1687202453613,17.0960445404053,100,0,,,,,B
000000058600001,586,Júnová,,48.1668930053711,17.098201751709,100,0,,,,,A
000000058600002,586,Júnová,,48.1670455932617,17.0981731414795,100,0,,,,,B
000000059400001,594,Guothova,,48.1656341552734,17.0983791351318,100,0,,,,,A
000000059400002,594,Guothova,,48.1655731201172,17.0984592437744,100,0,,,,,B
000000059100002,591,Rozvodná,,48.1683654785156,17.0933284759521,100,0,,,,,B
000000014900004,149,Klenová,,48.1706352233887,17.0930118560791,100,0,,,,,D
000000001100004,11,Bárdošova,,48.1650810241699,17.0959167480469,100,0,,,,,D
000000038800004,388,Stromová,,48.1627235412598,17.0992240905762,100,0,,,,,D
000000058700002,587,Cesta na Kamzík,,48.1616134643555,17.1028671264648,100,0,,,,,B
000000058700001,587,Cesta na Kamzík,,48.1618804931641,17.1025276184082,100,0,,,,,A
000000059000001,590,Žabotova,,48.1589965820313,17.108247756958,100,0,,,,,A
000000058900001,589,Matúškova,,48.1598739624023,17.1119842529297,100,0,,,,,A
000000058800001,588,Jaskový rad,,48.159553527832,17.1079387664795,100,0,,,,,A
000000056200001,562,Stará vinárska,,48.1526031494141,17.0966930389404,100,0,,,,,A
000000056200002,562,Stará vinárska,,48.152645111084,17.0966320037842,100,0,,,,,B
000000056300001,563,Slavín,,48.1523895263672,17.100700378418,100,0,,,,,A
000000056300002,563,Slavín,,48.1522560119629,17.1003227233887,100,0,,,,,B
000000056400004,564,Havlíčkova,,48.1540603637695,17.1004238128662,100,0,,,,,D
000000058400001,584,Kalvária,,48.1578407287598,17.0976104736328,100,0,,,,,A
000000075100001,751,Gorazdova,,48.1615104675293,17.0941009521484,100,0,,,,,A
000000058400002,584,Kalvária,,48.1575775146484,17.0980587005615,100,0,,,,,B
000000056400001,564,Havlíčkova,,48.1540489196777,17.1008052825928,100,0,,,,,A
000000056400002,564,Havlíčkova,,48.1541519165039,17.1007289886475,100,0,,,,,B
000000056500001,565,Mišíkova,,48.1518936157227,17.101921081543,100,0,,,,,A
000000056500002,565,Mišíkova,,48.1519355773926,17.1020832061768,100,0,,,,,B
000000056600001,566,Donovalova,,48.1514053344727,17.0994739532471,100,0,,,,,A
000000056600002,566,Donovalova,,48.150993347168,17.1001224517822,100,0,,,,,B
000000041500001,415,Šulekova,,48.1486663818359,17.09836769104,100,0,,,,,A
000000041500004,415,Šulekova,,48.1490135192871,17.0983543395996,100,0,,,,,D
000000050000003,500,Zochova,,48.1460494995117,17.1039409637451,100,0,,,,,C
000000009500004,95,Hodžovo nám.,,48.1479759216309,17.1068859100342,100,0,,,,,D
000000042000001,420,Tehelná,,48.1643142700195,17.1278038024902,100,0,,,,,A
000000026600002,266,Kukučínova,,48.170108795166,17.1287250518799,100,0,,,,,B
000000026600001,266,Kukučínova,,48.1704406738281,17.1286582946777,100,0,,,,,A
000000017600001,176,Slovany,,48.1729393005371,17.129373550415,100,0,,,,,A
000000029300004,293,Pionierska,,48.1697654724121,17.1273708343506,100,0,,,,,D
000000035900002,359,Sliačska,,48.1725883483887,17.1263465881348,100,0,,,,,B
000000035900001,359,Sliačska,,48.1725273132324,17.1262035369873,100,0,,,,,A
000000072400002,724,Muštová,,48.1732940673828,17.1214122772217,100,0,,,,,B
000000072400001,724,Muštová,,48.1727638244629,17.122896194458,100,0,,,,,A
000000059200002,592,Briežky,,48.174144744873,17.119348526001,100,0,,,,,B
000000027200002,272,Krahulčia,,48.1748085021973,17.1168403625488,100,0,,,,,B
000000019700001,197,Lopenícka,,48.1756782531738,17.1168422698975,100,0,,,,,A
000000010800002,108,Hubeného,,48.1958885192871,17.1415996551514,101,0,,,,,B
000000010800001,108,Hubeného,,48.1964225769043,17.140193939209,101,0,,,,,A
000000064800002,648,Slanec,,48.1986122131348,17.1351356506348,101,0,,,,,B
000000064800001,648,Slanec,,48.1984405517578,17.135326385498,101,0,,,,,A
000000073200002,732,Muničné sklady,,48.2003593444824,17.1275691986084,101,0,,,,,B
000000073200001,732,Muničné sklady,,48.2002372741699,17.1275806427002,101,0,,,,,A
000000073300001,733,Horáreň Krasňany,,48.2071723937988,17.1211338043213,101,0,,,,,A
000000043700009,437,Trnavské mýto,,48.1575813293457,17.1269016265869,100,0,,,,,I
000000049100002,491,Trnavská cesta,,48.1650772094727,17.1559925079346,100,0,,,,,B
000000049100001,491,Trnavská cesta,,48.1651573181152,17.1553936004639,100,0,,,,,A
000000021100002,211,Martinský cintorín,,48.1649627685547,17.1606884002686,100,0,,,,,B
000000021100001,211,Martinský cintorín,,48.1650505065918,17.1594314575195,100,0,,,,,A
000000003400002,34,Clementisova,,48.1648292541504,17.1650924682617,100,0,,,,,B
000000003400001,34,Clementisova,,48.1649398803711,17.164493560791,100,0,,,,,A
000000036500002,365,Slowackého,,48.165470123291,17.1709632873535,100,0,,,,,B
000000036500001,365,Slowackého,,48.1652183532715,17.1700401306152,100,0,,,,,A
000000008300001,83,Ivanská cesta,,48.1670150756836,17.1758689880371,100,0,,,,,A
000000073900002,739,Za Mokráňom,,48.1774101257324,17.1885395050049,101,0,,,,,A
000000073900001,739,Za Mokráňom,,48.1774291992188,17.1884136199951,101,0,,,,,A
000000007700001,77,Ekonom. univerzita,,48.1262168884277,17.1309452056885,100,0,,,,,A
000000007700002,77,Ekonom. univerzita,,48.1256790161133,17.1310501098633,100,0,,,,,B
000000050000001,500,Zochova,,48.1455154418945,17.1040649414063,100,0,,,,,A
000000050000002,500,Zochova,,48.1455116271973,17.103853225708,100,0,,,,,B
000000009500003,95,Hodžovo nám.,,48.1490211486816,17.1071224212646,100,0,,,,,C
000000026100009,261,Most SNP,,48.140266418457,17.1043262481689,100,0,,,,,I
000000026100022,261,Most SNP,,48.1408309936523,17.1040477752686,100,0,,,,,V
000000076100002,761,Pri sade,,48.1331825256348,17.1046199798584,100,0,,,,,B
000000076100001,761,Pri sade,,48.1334037780762,17.1049118041992,100,0,,,,,A
000000007400002,74,Dvory,,48.1282196044922,17.1048946380615,100,0,,,,,B
000000007400001,74,Dvory,,48.1285171508789,17.105152130127,100,0,,,,,A
000000051700006,517,Stn. Petržalka,,48.1205406188965,17.0999565124512,100,0,,,,,F
000000051700005,517,Stn. Petržalka,,48.1209869384766,17.1007614135742,100,0,,,,,E
000000015300002,153,Kolmá,,48.1136894226074,17.0960159301758,100,0,,,,,B
000000015300003,153,Kolmá,,48.1137580871582,17.0963077545166,100,0,,,,,C
000000024100002,241,OC Lúky,,48.1050148010254,17.0954265594482,100,0,,,,,B
000000024100001,241,OC Lúky,,48.1056327819824,17.0956935882568,100,0,,,,,A
000000012700002,127,Jasovská,,48.0937767028809,17.1186141967773,100,0,,,,,B
000000012700001,127,Jasovská,,48.0939903259277,17.1180019378662,100,0,,,,,A
000000069100002,691,Žltá,,48.0864181518555,17.1241283416748,100,0,,,,,B
000000069100001,691,Žltá,,48.0873641967773,17.1239795684814,100,0,,,,,A
000000012600002,126,"Jarovce, záhrady",,48.0773391723633,17.1250705718994,101,0,,,,,B
000000012600001,126,"Jarovce, záhrady",,48.0775260925293,17.1255149841309,101,0,,,,,A
000000038500002,385,Strelnica,,48.072624206543,17.1188583374023,101,0,,,,,B
000000038500001,385,Strelnica,,48.0728988647461,17.1191387176514,101,0,,,,,A
000000029200002,292,Píla,,48.0695571899414,17.1167087554932,101,0,,,,,B
000000029200001,292,Píla,,48.0707702636719,17.1176624298096,101,0,,,,,A
000000012500002,125,Jarovce,,48.0662994384766,17.1144485473633,101,0,,,,,B
000000012500001,125,Jarovce,,48.0661926269531,17.1144542694092,101,0,,,,,A
000000034900002,349,Ovocná,,48.0639839172363,17.1174354553223,101,0,,,,,B
000000034900001,349,Ovocná,,48.0640258789063,17.1174716949463,101,0,,,,,A
000000016100002,161,Kovácsova,,48.0578994750977,17.1386604309082,101,0,,,,,B
000000016100001,161,Kovácsova,,48.0579299926758,17.1387004852295,101,0,,,,,A
000000047600002,476,Vývojová,,48.0561408996582,17.1441669464111,101,0,,,,,B
000000047600001,476,Vývojová,,48.0561561584473,17.1442642211914,101,0,,,,,A
000000034200002,342,Gerulata,,48.0542259216309,17.1468105316162,101,0,,,,,B
000000034200001,342,Gerulata,,48.0540351867676,17.1472187042236,101,0,,,,,A
000000049200002,492,Kaštieľ Rusovce,,48.0507202148438,17.1504936218262,101,0,,,,,B
000000049200001,492,Kaštieľ Rusovce,,48.0494155883789,17.1514053344727,101,0,,,,,A
000000051800002,518,Stn. Rusovce,,48.0466194152832,17.1523990631104,101,0,,,,,B
000000051800001,518,Stn. Rusovce,,48.0468673706055,17.1521606445313,101,0,,,,,A
000000050100001,501,Habánsky mlyn,,48.1631927490234,17.0761756896973,100,0,,,,,A
000000050100002,501,Habánsky mlyn,,48.1639022827148,17.0764331817627,100,0,,,,,B
000000035800001,358,Zoo,,48.154613494873,17.0757884979248,100,0,,,,,A
000000035800002,358,Zoo,,48.1541481018066,17.0768871307373,100,0,,,,,B
000000007600001,76,Einsteinova,,48.1316375732422,17.1005249023438,100,0,,,,,A
000000007600002,76,Einsteinova,,48.1322250366211,17.0987186431885,100,0,,,,,B
000000008700002,87,Hálova,,48.123722076416,17.1075096130371,100,0,,,,,B
000000008700001,87,Hálova,,48.1239776611328,17.1073265075684,100,0,,,,,A
000000013200002,132,Jungmannova,,48.123607635498,17.1115837097168,100,0,,,,,B
000000013200001,132,Jungmannova,,48.1238021850586,17.110502243042,100,0,,,,,A
000000024600002,246,Nám. hraničiarov,,48.1209754943848,17.1176204681396,100,0,,,,,B
000000024600001,246,Nám. hraničiarov,,48.1221084594727,17.1169872283936,100,0,,,,,A
000000010500002,105,Hrobákova,,48.1188278198242,17.1144180297852,100,0,,,,,B
000000010500001,105,Hrobákova,,48.1188888549805,17.1160888671875,100,0,,,,,A
000000034000002,340,Romanova,,48.1178092956543,17.1109275817871,100,0,,,,,B
000000034000001,340,Romanova,,48.1180648803711,17.1111793518066,100,0,,,,,A
000000002200002,22,Bradáčova,,48.1145896911621,17.1123390197754,100,0,,,,,B
000000002200001,22,Bradáčova,,48.114185333252,17.1125144958496,100,0,,,,,A
000000042600004,426,Kutlíkova,,48.1106300354004,17.1112079620361,100,0,,,,,D
000000042600001,426,Kutlíkova,,48.111156463623,17.1122856140137,100,0,,,,,A
000000043300004,433,Topoľčianska,,48.1099243164063,17.1081447601318,100,0,,,,,D
000000043300003,433,Topoľčianska,,48.1095275878906,17.1082153320313,100,0,,,,,C
000000039900004,399,Šintavská,,48.1052207946777,17.1077766418457,100,0,,,,,D
000000039900001,399,Šintavská,,48.106761932373,17.1079921722412,100,0,,,,,A
000000038400004,384,Strečnianska,,48.1030921936035,17.1075534820557,100,0,,,,,D
000000038400003,384,Strečnianska,,48.1035194396973,17.1075534820557,100,0,,,,,C
000000049900001,499,Znievska,,48.1004638671875,17.1052913665771,100,0,,,,,A
000000049900002,499,Znievska,,48.1006164550781,17.106071472168,100,0,,,,,B
000000002400001,24,Budatínska,,48.1001472473145,17.1025943756104,100,0,,,,,A
000000002400002,24,Budatínska,,48.1000289916992,17.1035575866699,100,0,,,,,B
000000020300002,203,Lúky V,,48.0962181091309,17.1034488677979,100,0,,,,,B
000000020300001,203,Lúky V,,48.0969772338867,17.1029949188232,100,0,,,,,A
000000047500001,475,Vyšehradská,,48.0951538085938,17.1068019866943,100,0,,,,,A
000000047500003,475,Vyšehradská,,48.0952606201172,17.1049613952637,100,0,,,,,C
000000020000006,200,Lúčanka,,48.0980262756348,17.1102027893066,100,0,,,,,F
000000020000005,200,Lúčanka,,48.0974617004395,17.1095275878906,100,0,,,,,E
000000019900002,199,Ľubovnianska,,48.0990982055664,17.1140403747559,100,0,,,,,B
000000019900001,199,Ľubovnianska,,48.0992889404297,17.1143379211426,100,0,,,,,A
000000002900002,29,Bzovícka,,48.0993881225586,17.117883682251,100,0,,,,,B
000000002900001,29,Bzovícka,,48.0994834899902,17.1184825897217,100,0,,,,,A
000000063100002,631,Betliarska,,48.0992317199707,17.1234893798828,100,0,,,,,B
000000063100001,631,Betliarska,,48.099365234375,17.1223030090332,100,0,,,,,A
000000006100002,61,Depo Petržalka,,48.0988006591797,17.1253204345703,100,0,,,,,B
000000006100001,61,Depo Petržalka,,48.0989952087402,17.1254234313965,100,0,,,,,A
000000071000001,710,"Opletalova, VW5",,48.2334098815918,16.9814357757568,101,0,,,,,A
000000071000002,710,"Opletalova, VW5",,48.2331466674805,16.9813060760498,101,0,,,,,B
000000055400001,554,Paulinské,,48.2290191650391,16.9803943634033,101,0,,,,,A
000000055400002,554,Paulinské,,48.2294311523438,16.9806461334229,101,0,,,,,B
000000038700001,387,Panské,,48.2265548706055,16.979341506958,101,0,,,,,A
000000038700002,387,Panské,,48.2260360717773,16.9792232513428,101,0,,,,,B
000000002800001,28,Bystrická,,48.2232322692871,16.978214263916,101,0,,,,,A
000000002800002,28,Bystrická,,48.223991394043,16.9785118103027,101,0,,,,,B
000000051300001,513,Stn. Dev. Nová Ves,,48.22021484375,16.9778099060059,101,0,,,,,A
000000051300002,513,Stn. Dev. Nová Ves,,48.2199783325195,16.9778709411621,101,0,,,,,B
000000022700001,227,Mlynská,,48.2165565490723,16.9758205413818,101,0,,,,,A
000000022700002,227,Mlynská,,48.2167930603027,16.9769248962402,101,0,,,,,B
000000025900001,259,Novoveská,,48.211727142334,16.9732246398926,101,0,,,,,A
000000025900002,259,Novoveská,,48.2123870849609,16.9734878540039,101,0,,,,,B
000000005400001,54,Uhrovecká,,48.2085075378418,16.9725646972656,101,0,,,,,A
000000005400002,54,Uhrovecká,,48.2090911865234,16.9728088378906,101,0,,,,,B
000000010200001,102,Hradištná,,48.2066535949707,16.9749031066895,101,0,,,,,A
000000010200002,102,Hradištná,,48.2071304321289,16.9740447998047,101,0,,,,,B
000000022100001,221,Milana Marečka,,48.2057991027832,16.9795742034912,101,0,,,,,A
000000022100002,221,Milana Marečka,,48.2058448791504,16.9779930114746,101,0,,,,,B
000000041000001,410,Štefana Králika,,48.2059478759766,16.9845848083496,101,0,,,,,A
000000041000002,410,Štefana Králika,,48.2059631347656,16.9827270507813,101,0,,,,,B
000000045300001,453,Vápenka,,48.2058715820313,16.9961490631104,101,0,,,,,A
000000045300002,453,Vápenka,,48.205924987793,16.9961128234863,101,0,,,,,B
000000017400001,174,Krpáš,,48.205207824707,17.0078907012939,101,0,,,,,A
000000017400002,174,Krpáš,,48.205249786377,17.0077438354492,101,0,,,,,B
000000030100001,301,Kamenáče,,48.2056465148926,17.0130519866943,101,0,,,,,A
000000030100002,301,Kamenáče,,48.2056694030762,17.0129718780518,101,0,,,,,B
000000069400001,694,T. P. Kolakoviča,,48.2055587768555,17.0168972015381,101,0,,,,,A
000000069400002,694,T. P. Kolakoviča,,48.2057723999023,17.0162143707275,101,0,,,,,B
000000008100001,81,Agátová,,48.2006683349609,17.0316677093506,101,0,,,,,A
000000008100002,81,Agátová,,48.2000122070313,17.0320415496826,101,0,,,,,B
000000031000003,310,Pri kríži,,48.1942443847656,17.0339088439941,101,0,,,,,C
000000031000006,310,Pri kríži,,48.1959609985352,17.0339241027832,101,0,,,,,F
000000026500003,265,Podvornice,,48.1915588378906,17.0349731445313,101,0,,,,,C
000000026500004,265,Podvornice,,48.1921997070313,17.0351715087891,101,0,,,,,D
000000006800003,68,Drobného,,48.1879386901855,17.0364303588867,101,0,,,,,C
000000006800004,68,Drobného,,48.1887397766113,17.0365829467773,101,0,,,,,D
000000000100003,1,Alexyho,,48.1847534179688,17.0377006530762,101,0,,,,,C
000000000100004,1,Alexyho,,48.1859703063965,17.037654876709,101,0,,,,,D
000000041800003,418,Švantnerova,,48.1817207336426,17.0404586791992,101,0,,,,,C
000000041800004,418,Švantnerova,,48.1825294494629,17.0399799346924,101,0,,,,,D
000000019300001,193,Lipského,,48.1785125732422,17.0518455505371,101,0,,,,,A
000000019300002,193,Lipského,,48.1783638000488,17.0505905151367,101,0,,,,,B
000000038200001,382,Húščavova,,48.1789588928223,17.0549926757813,101,0,,,,,A
000000038200002,382,Húščavova,,48.1790351867676,17.0547065734863,101,0,,,,,B
000000057400001,574,Tesco Lamač,,48.1763000488281,17.0659446716309,101,0,,,,,A
000000000500005,5,Autobusová stanica,,48.1473007202148,17.126033782959,100,0,,,,,E
000000022900002,229,Mokrohájska,,48.1736717224121,17.0678558349609,100,0,,,,,B
000000070000002,700,OC Bory,,48.2037506103516,17.0330352783203,101,0,,,,,B
000000070000001,700,OC Bory,,48.2035789489746,17.0322723388672,101,0,,,,,A
000000023700002,237,Pri Sandbergu,,48.2048187255859,16.9706935882568,101,0,,,,,B
000000023700004,237,Pri Sandbergu,,48.2048645019531,16.9703006744385,101,0,,,,,D
000000051300004,513,Stn. Dev. Nová Ves,,48.2195281982422,16.978874206543,101,0,,,,,D
000000051300003,513,Stn. Dev. Nová Ves,,48.2195777893066,16.9787445068359,101,0,,,,,C
000000063500002,635,Zamajerské,,48.2227058410645,16.9850673675537,101,0,,,,,B
000000063500001,635,Zamajerské,,48.2222137451172,16.98388671875,101,0,,,,,A
000000047100001,471,"Jána Jonáša, VW1",,48.225513458252,16.9918403625488,101,0,,,,,A
000000047100003,471,"Jána Jonáša, VW1",,48.225212097168,16.9915885925293,101,0,,,,,C
000000035400001,354,Jána Jonáša,,48.2271308898926,16.9975872039795,101,0,,,,,A
000000035400002,354,Jána Jonáša,,48.2268295288086,16.9963531494141,101,0,,,,,B
000000057200002,572,"Volkswagen, VW2",,48.23681640625,16.9905757904053,101,0,,,,,B
000000057200001,572,"Volkswagen, VW2",,48.2366600036621,16.9907054901123,101,0,,,,,A
000000018300001,183,Lamač,,48.1920852661133,17.0531482696533,101,0,,,,,A
000000018300002,183,Lamač,,48.1923065185547,17.0531978607178,101,0,,,,,B
000000014800001,148,Klanec,,48.1929931640625,17.058479309082,101,0,,,,,A
000000014800002,148,Klanec,,48.1926689147949,17.0585079193115,101,0,,,,,B
000000038900001,389,Studenohorská,,48.1939392089844,17.0571460723877,101,0,,,,,A
000000038900002,389,Studenohorská,,48.1939506530762,17.0564575195313,101,0,,,,,B
000000029600001,296,Podháj,,48.1957321166992,17.0520477294922,101,0,,,,,A
000000029600002,296,Podháj,,48.1951560974121,17.0528564453125,101,0,,,,,B
000000000900001,9,Bakošova,,48.1971626281738,17.0485763549805,101,0,,,,,A
000000000900002,9,Bakošova,,48.1964492797852,17.0496349334717,101,0,,,,,B
000000046900001,469,Vrančovičova,,48.1932106018066,17.0465717315674,101,0,,,,,A
000000046900002,469,Vrančovičova,,48.1942138671875,17.0467472076416,101,0,,,,,B
000000029500001,295,Pod násypom,,48.188777923584,17.0480537414551,101,0,,,,,A
000000029500002,295,Pod násypom,,48.1898994445801,17.0474147796631,101,0,,,,,B
000000072100001,721,Kúpalisko Lamač,,48.1874046325684,17.0507202148438,101,0,,,,,A
000000035200001,352,Segnáre,,48.1859970092773,17.0532894134521,101,0,,,,,A
000000029500003,295,Pod násypom,,48.1882743835449,17.046703338623,101,0,,,,,C
000000048500003,485,Stn. Lamač,,48.1857795715332,17.0483112335205,101,0,,,,,C
000000048500004,485,Stn. Lamač,,48.1849174499512,17.0468616485596,101,0,,,,,D
000000001500001,15,Bilíkova,,48.1861801147461,17.0424098968506,101,0,,,,,A
000000000100006,1,Alexyho,,48.1856269836426,17.0396537780762,101,0,,,,,F
000000042400001,424,Technické sklo,,48.2013626098633,17.0148372650146,101,0,,,,,A
000000069400004,694,T. P. Kolakoviča,,48.206729888916,17.016939163208,101,0,,,,,D
000000069400003,694,T. P. Kolakoviča,,48.2062034606934,17.0171604156494,101,0,,,,,C
000000067000002,670,Veľkolúcky potok,,48.2118949890137,17.0130577087402,101,0,,,,,B
000000067000001,670,Veľkolúcky potok,,48.2102470397949,17.0140705108643,101,0,,,,,A
000000004300002,43,Napájiská,,48.2214775085449,17.0058040618896,101,0,,,,,B
000000004300001,43,Napájiská,,48.221263885498,17.0058727264404,101,0,,,,,A
000000053100002,531,Vápencová,,48.2147903442383,16.9811420440674,101,0,,,,,B
000000053100001,531,Vápencová,,48.2148208618164,16.9810256958008,101,0,,,,,A
000000031600002,316,Rakyta,,48.2154998779297,16.9836235046387,101,0,,,,,B
000000031600001,316,Rakyta,,48.2153701782227,16.983060836792,101,0,,,,,A
000000037000002,370,Mláka,,48.2176399230957,16.9910469055176,101,0,,,,,B
000000037000001,370,Mláka,,48.2176361083984,16.9907646179199,101,0,,,,,A
000000047100002,471,"Jána Jonáša, VW1",,48.2254219055176,16.9915332794189,101,0,,,,,B
000000009700001,97,Homolova,,48.1942977905273,17.0289077758789,101,0,,,,,A
000000009700002,97,Homolova,,48.1941337585449,17.0288982391357,101,0,,,,,B
000000041200001,412,Štepná,,48.1913146972656,17.0284671783447,101,0,,,,,A
000000041200002,412,Štepná,,48.1915969848633,17.0286140441895,101,0,,,,,B
000000050500001,505,Žatevná,,48.1887283325195,17.0286426544189,101,0,,,,,A
000000050500002,505,Žatevná,,48.1888809204102,17.0288848876953,101,0,,,,,B
000000028800001,288,Pekníkova,,48.1898803710938,17.03342628479,101,0,,,,,A
000000028800002,288,Pekníkova,,48.1897811889648,17.0326652526855,101,0,,,,,B
000000020800001,208,Malá scéna,,48.1418533325195,17.1191673278809,100,0,,,,,A
000000020800004,208,Malá scéna,,48.14111328125,17.1193008422852,100,0,,,,,D
000000020800003,208,Malá scéna,,48.1413650512695,17.1199512481689,100,0,,,,,C
000000039400004,394,Šafárikovo nám.,,48.1413917541504,17.1172885894775,100,0,,,,,D
000000039400003,394,Šafárikovo nám.,,48.1408958435059,17.1162528991699,100,0,,,,,C
000000024800006,248,Nám. Ľ. Štúra,,48.1399345397949,17.1086959838867,100,0,,,,,F
000000024800005,248,Nám. Ľ. Štúra,,48.1399154663086,17.1104640960693,100,0,,,,,E
000000026100004,261,Most SNP,,48.1399040222168,17.1043453216553,100,0,,,,,D
000000026100003,261,Most SNP,,48.1396789550781,17.1057014465332,100,0,,,,,C
000000043900006,439,Chatam Sófer,,48.141918182373,17.0906867980957,100,0,,,,,F
000000043900005,439,Chatam Sófer,,48.1409873962402,17.0925559997559,100,0,,,,,E
000000028100004,281,Kráľovské údolie,,48.1431159973145,17.0844039916992,100,0,,,,,D
000000028100003,281,Kráľovské údolie,,48.1425857543945,17.0858783721924,100,0,,,,,C
000000018100004,181,Lanfranconi,,48.1455764770508,17.077657699585,100,0,,,,,D
000000018100003,181,Lanfranconi,,48.1447677612305,17.0786457061768,100,0,,,,,C
000000002100004,21,Botanická záhrada,,48.1483192443848,17.0719299316406,100,0,,,,,D
000000002100003,21,Botanická záhrada,,48.14794921875,17.0723991394043,100,0,,,,,C
000000023000010,230,Riviéra,,48.1481056213379,17.0632667541504,100,0,,,,,J
000000023000009,230,Riviéra,,48.1481742858887,17.0643653869629,100,0,,,,,I
000000013500002,135,Jurigrad,,48.1468887329102,17.052827835083,101,0,,,,,B
000000013500001,135,Jurigrad,,48.1468353271484,17.0533809661865,101,0,,,,,A
000000046000002,460,Sihoť,,48.1489372253418,17.043737411499,101,0,,,,,B
000000046000001,460,Sihoť,,48.1488609313965,17.0438098907471,101,0,,,,,A
000000013700002,137,Kadlečík,,48.1505317687988,17.0380020141602,101,0,,,,,B
000000013700001,137,Kadlečík,,48.1503868103027,17.0382919311523,101,0,,,,,A
000000049800002,498,Zlaté schody,,48.151725769043,17.0315055847168,101,0,,,,,B
000000049800001,498,Zlaté schody,,48.1516494750977,17.0319995880127,101,0,,,,,A
000000008500002,85,Hájovňa,,48.1526145935059,17.0248508453369,101,0,,,,,B
000000008500001,85,Hájovňa,,48.1526718139648,17.0243911743164,101,0,,,,,A
000000031700002,317,Pri záhradách,,48.1569595336914,17.0138397216797,101,0,,,,,B
000000031700001,317,Pri záhradách,,48.1569213867188,17.0137767791748,101,0,,,,,A
000000026000002,260,Nový kameňolom,,48.1583671569824,17.0080528259277,101,0,,,,,B
000000026000001,260,Nový kameňolom,,48.158088684082,17.0084095001221,101,0,,,,,A
000000037700002,377,Starý kameňolom,,48.1630249023438,17.00026512146,101,0,,,,,B
000000037700001,377,Starý kameňolom,,48.1629257202148,17.0002384185791,101,0,,,,,A
000000047700002,477,Dolné koruny,,48.1657485961914,16.9968242645264,101,0,,,,,B
000000047700001,477,Dolné koruny,,48.1656341552734,16.9968509674072,101,0,,,,,A
000000017000002,170,K Zlatému rohu,,48.1705513000488,16.988956451416,101,0,,,,,B
000000017000001,170,K Zlatému rohu,,48.170238494873,16.9899463653564,101,0,,,,,A
000000005700002,57,Slovanské nábr.,,48.1719131469727,16.9872074127197,101,0,,,,,B
000000005700001,57,Slovanské nábr.,,48.1714553833008,16.9871864318848,101,0,,,,,A
000000024900002,249,Cyril a Metod,,48.173957824707,16.9860782623291,101,0,,,,,B
000000024900001,249,Cyril a Metod,,48.1735305786133,16.9863605499268,101,0,,,,,A
000000041300002,413,Štrbská,,48.1776123046875,16.98219871521,101,0,,,,,B
000000041300001,413,Štrbská,,48.1771202087402,16.9827671051025,101,0,,,,,A
000000005600002,56,Hrad Devín,,48.1801605224609,16.9799423217773,101,0,,,,,B
000000005600001,56,Hrad Devín,,48.1800689697266,16.9798526763916,101,0,,,,,A
000000023100002,231,Pod Dev. Kobylou,,48.1881065368652,16.9776058197021,101,0,,,,,B
000000023100001,231,Pod Dev. Kobylou,,48.1875915527344,16.9775066375732,101,0,,,,,A
000000005800002,58,Waitov lom,,48.1933174133301,16.9757213592529,101,0,,,,,B
000000005800001,58,Waitov lom,,48.1925506591797,16.9761390686035,101,0,,,,,A
000000035000002,350,Morava,,48.197811126709,16.9728965759277,101,0,,,,,B
000000035000001,350,Morava ,,48.1980667114258,16.9726734161377,101,0,,,,,A
000000023700001,237,Pri Sandbergu,,48.2043304443359,16.9702911376953,101,0,,,,,A
000000012100002,121,Ivana Bukovčana,,48.2080230712891,16.9764270782471,101,0,,,,,B
000000012100001,121,Ivana Bukovčana,,48.2078285217285,16.9758415222168,101,0,,,,,A
000000023600002,236,Na Grbe,,48.2109603881836,16.9756164550781,101,0,,,,,B
000000023600001,236,Na Grbe,,48.210765838623,16.9765644073486,101,0,,,,,A
000000072300001,723,Hrubé lúky,,48.2057418823242,17.0234909057617,101,0,,,,,A
000000072300002,723,Hrubé lúky,,48.2062911987305,17.0224628448486,101,0,,,,,B
000000075300001,753,Vladimíra Jukla,,48.2088203430176,17.030818939209,101,0,,,,,A
000000075300002,753,Vladimíra Jukla,,48.2082595825195,17.0289096832275,101,0,,,,,B
000000075200001,752,Nemocnica Bory,,48.2072563171387,17.0314788818359,101,0,,,,,A
000000075200002,752,Nemocnica Bory,,48.2074584960938,17.0323295593262,101,0,,,,,B
000000026300001,263,Hodonínska,,48.1993064880371,17.0445384979248,101,0,,,,,A
000000026300002,263,Hodonínska,,48.1992530822754,17.0448474884033,101,0,,,,,B
000000046900004,469,Vrančovičova,,48.1937713623047,17.047061920166,101,0,,,,,D
000000048500001,485,Stn. Lamač,,48.1851196289063,17.049165725708,101,0,,,,,A
000000048500002,485,Stn. Lamač,,48.1852760314941,17.0491790771484,101,0,,,,,B
000000051400002,514,Skerličova,,48.1839256286621,17.0517921447754,101,0,,,,,B
000000032000001,320,Pridánky,,48.1808738708496,17.0573902130127,101,0,,,,,A
000000032000002,320,Pridánky,,48.1807250976563,17.0582790374756,101,0,,,,,B
000000035700002,357,Cintorín Slávičie,,48.1583595275879,17.0678272247314,100,0,,,,,B
000000042700001,427,Televízia,,48.1556205749512,17.0724792480469,100,0,,,,,A
000000042700002,427,Televízia,,48.1564826965332,17.0713996887207,100,0,,,,,B
000000035800003,358,Zoo,,48.1541290283203,17.0752029418945,100,0,,,,,C
000000035800004,358,Zoo,,48.1543273925781,17.075080871582,100,0,,,,,D
000000015200005,152,Kollárovo nám.,,48.1509971618652,17.1121234893799,100,0,,,,,E
000000015200004,152,Kollárovo nám.,,48.1497993469238,17.1103096008301,100,0,,,,,D
000000074000001,740,Nám. slobody,,48.1524467468262,17.1133041381836,100,0,,,,,A
000000017500004,175,Dlhé diely,,48.1575698852539,17.0448226928711,100,0,,,,,D
000000017500006,175,Dlhé diely,,48.1578636169434,17.0444316864014,100,0,,,,,F
000000062500001,625,Pod Kráľovou horou,,48.1596069335938,17.0460796356201,100,0,,,,,A
000000062500002,625,Pod Kráľovou horou,,48.1595268249512,17.045747756958,100,0,,,,,B
000000062600001,626,Kuklovská,,48.1611976623535,17.0454788208008,100,0,,,,,A
000000062600002,626,Kuklovská,,48.1612701416016,17.0454730987549,100,0,,,,,B
000000062800001,628,Šaštínska,,48.1646156311035,17.0454063415527,100,0,,,,,A
000000062700001,627,Sološnická,,48.1627197265625,17.0433082580566,100,0,,,,,A
000000014300003,143,Kútiky,,48.1645851135254,17.0472984313965,100,0,,,,,C
000000001900008,19,Borská,,48.1631660461426,17.0480766296387,100,0,,,,,H
000000006000004,60,Dolné Krčace,,48.1707038879395,17.049747467041,101,0,,,,,D
000000006000003,60,Dolné Krčace,,48.1700782775879,17.0494022369385,101,0,,,,,C
000000009800004,98,Horné Krčace,,48.1746215820313,17.0491733551025,101,0,,,,,D
000000009800003,98,Horné Krčace,,48.1738662719727,17.0489692687988,101,0,,,,,C
000000009000002,90,Harmincova,,48.1765403747559,17.0476360321045,101,0,,,,,B
000000009000001,90,Harmincova,,48.1770133972168,17.0465774536133,101,0,,,,,A
000000029800003,298,Polianky,,48.1755409240723,17.0604248046875,101,0,,,,,C
000000029800004,298,Polianky,,48.1758041381836,17.0590000152588,101,0,,,,,D
000000019200003,192,Dúbravská cesta,,48.1732635498047,17.0666561126709,100,0,,,,,C
000000037100001,371,Strmé vŕšky,,48.2279396057129,17.0475921630859,101,0,,,,,A
000000070200001,702,Bystrické sady,,48.2304344177246,17.0429306030273,101,0,,,,,A
000000070200002,702,Bystrické sady,,48.2306213378906,17.0426044464111,101,0,,,,,B
000000074300001,743,Pod vŕškami,,48.2319793701172,17.0410690307617,101,0,,,,,A
000000070100001,701,Rudavská,,48.2357025146484,17.0363235473633,101,0,,,,,A
000000070100002,701,Rudavská,,48.2349319458008,17.0369510650635,101,0,,,,,B
000000016800002,168,Krče,,48.2374687194824,17.0355014801025,101,0,,,,,B
000000016800001,168,Krče,,48.2377853393555,17.0346717834473,101,0,,,,,A
000000060600002,606,MiÚ Záh. Bystrica,,48.2387886047363,17.0377349853516,101,0,,,,,B
000000047900001,479,Záhorská,,48.241527557373,17.0367603302002,101,0,,,,,A
000000044100001,441,Bratislavská,,48.2342834472656,17.0316848754883,101,0,,,,,A
000000044100002,441,Bratislavská,,48.2341537475586,17.0315933227539,101,0,,,,,B
000000005900001,59,Dievčí hrádok,,48.2288475036621,17.032585144043,101,0,,,,,A
000000005900002,59,Dievčí hrádok,,48.2291412353516,17.0326175689697,101,0,,,,,B
000000073400001,734,Kulháň,,48.2235412597656,17.0337066650391,101,0,,,,,A
000000073400002,734,Kulháň,,48.2238616943359,17.033784866333,101,0,,,,,B
000000035600001,356,Podkerepušky,,48.2201728820801,17.0346870422363,101,0,,,,,A
000000035600002,356,Podkerepušky,,48.2206077575684,17.0346832275391,101,0,,,,,B
000000030900001,309,Pri krematóriu,,48.2080688476563,17.0411128997803,101,0,,,,,A
000000030900002,309,Pri krematóriu,,48.209587097168,17.0406913757324,101,0,,,,,B
000000070000003,700,OC Bory,,48.2044525146484,17.0330619812012,101,0,,,,,C
000000026100007,261,Most SNP,,48.1402702331543,17.1041698455811,100,0,,,,,G
000000026100021,261,Most SNP,,48.1405715942383,17.1044368743896,100,0,,,,,U
000000047900002,479,Záhorská,,48.2413101196289,17.0384368896484,101,0,,,,,B
000000048100002,481,Záhorská Bystrica,,48.2397880554199,17.0437774658203,101,0,,,,,B
000000048100001,481,Záhorská Bystrica,,48.2398834228516,17.0438537597656,101,0,,,,,A
000000030400001,304,Povraznícka,,48.1553764343262,17.1169319152832,100,0,,,,,A
000000033200007,332,Račianske mýto,,48.1571273803711,17.119176864624,100,0,,,,,G
000000012200002,122,Planét,,48.1637573242188,17.1720371246338,100,0,,,,,B
000000012200001,122,Planét,,48.1643257141113,17.1709499359131,100,0,,,,,A
000000034400004,344,Súhvezdná,,48.1617279052734,17.1759147644043,100,0,,,,,D
000000034400003,344,Súhvezdná,,48.1611938476563,17.1768493652344,100,0,,,,,C
000000007000002,70,Dubová,,48.1655120849609,17.0828075408936,100,0,,,,,B
000000007000001,70,Dubová,,48.1654281616211,17.0822467803955,100,0,,,,,A
000000030600003,306,Pod stanicou,,48.1557273864746,17.1086120605469,100,0,,,,,C
000000022800001,228,Malý trh,,48.1472816467285,17.1240882873535,100,0,,,,,A
000000035300004,353,Segnerova,,48.1537284851074,17.0580940246582,100,0,,,,,D
000000035300003,353,Segnerova,,48.1533966064453,17.0585441589355,100,0,,,,,C
000000024000004,240,Nad lúčkami,,48.156909942627,17.0531482696533,100,0,,,,,D
000000024000003,240,Nad lúčkami,,48.1568450927734,17.0527629852295,100,0,,,,,C
000000018000004,180,Nám. sv. Františka,,48.1589202880859,17.0517768859863,100,0,,,,,D
000000018000003,180,Nám. sv. Františka,,48.1584854125977,17.0516185760498,100,0,,,,,C
000000001900004,19,Borská,,48.162483215332,17.0485668182373,100,0,,,,,D
000000001900003,19,Borská,,48.1624298095703,17.048189163208,100,0,,,,,C
000000031000005,310,Pri kríži,,48.1951522827148,17.0325508117676,101,0,,,,,E
000000016800004,168,Krče,,48.2381324768066,17.0348510742188,101,0,,,,,D
000000046200004,462,Červený most,,48.1725654602051,17.0740661621094,100,0,,,,,D
000000069300002,693,Partizánska lúka,,48.1749687194824,17.0737400054932,100,0,,,,,B
000000069300001,693,Partizánska lúka,,48.1745414733887,17.0737857818604,100,0,,,,,A
000000015000002,150,Klepáč,,48.1819496154785,17.0737113952637,101,0,,,,,B
000000015000001,150,Klepáč,,48.181884765625,17.0737972259521,101,0,,,,,A
000000003000002,30,Deviaty mlyn,,48.1858787536621,17.0777187347412,101,0,,,,,B
000000003000001,30,Deviaty mlyn,,48.1858062744141,17.0775108337402,101,0,,,,,A
000000050700002,507,Železná studnička,,48.1902885437012,17.0824604034424,101,0,,,,,B
000000050700001,507,Železná studnička,,48.1901702880859,17.0815734863281,101,0,,,,,A
000000050700004,507,Železná studnička,,48.190258026123,17.082239151001,101,0,,,,,D
000000066800002,668,Kačínska dolina,,48.2026672363281,17.0744762420654,101,0,,,,,B
000000066800001,668,Kačínska dolina,,48.2026405334473,17.074405670166,101,0,,,,,A
000000066700001,667,Kačín,,48.2147789001465,17.0682373046875,101,0,,,,,A
000000018700002,187,Bukva,,48.192455291748,17.0871467590332,101,0,,,,,B
000000018700001,187,Bukva,,48.1924896240234,17.0869998931885,101,0,,,,,A
000000034600002,346,Drieňovské lúky,,48.1940803527832,17.0914783477783,101,0,,,,,B
000000034600001,346,Drieňovské lúky,,48.1942367553711,17.0914707183838,101,0,,,,,A
000000018400002,184,Lanovka,,48.1952896118164,17.0980739593506,101,0,,,,,B
000000018400001,184,Lanovka,,48.1951675415039,17.0976371765137,101,0,,,,,A
000000014000002,140,Kameňolom,,48.1966705322266,17.1001167297363,101,0,,,,,B
000000014000001,140,Kameňolom,,48.1962890625,17.0996189117432,101,0,,,,,A
000000018800001,188,Lesopark,,48.2016983032227,17.0983085632324,101,0,,,,,A
000000043700010,437,Trnavské mýto,,48.157096862793,17.1268997192383,100,0,,,,,J
000000026700004,267,Česká,,48.1618156433105,17.1317844390869,100,0,,,,,D
000000026700003,267,Česká,,48.1617546081543,17.1313400268555,100,0,,,,,C
000000025700006,257,Nová doba,,48.1649284362793,17.1346855163574,100,0,,,,,F
000000025700007,257,Nová doba,,48.1649780273438,17.1344356536865,100,0,,,,,G
000000021300004,213,MiÚ Nové Mesto,,48.1684265136719,17.1381607055664,100,0,,,,,D
000000021300003,213,MiÚ Nové Mesto,,48.1686859130859,17.138032913208,100,0,,,,,C
000000048800004,488,Kuchajda,,48.172981262207,17.1425476074219,100,0,,,,,D
000000048800003,488,Kuchajda,,48.1732177734375,17.1424007415771,100,0,,,,,C
000000026800004,268,Odborárska,,48.1767883300781,17.1465435028076,100,0,,,,,D
000000026800003,268,Odborárska,,48.1760940551758,17.1452121734619,100,0,,,,,C
000000020500004,205,Magnetová,,48.1800079345703,17.1551361083984,100,0,,,,,D
000000020500003,205,Magnetová,,48.1795463562012,17.1530647277832,100,0,,,,,C
000000046400009,464,Depo Jurajov dvor,,48.1815872192383,17.1598014831543,100,0,,,,,I
000000013300004,133,Jurajov dvor,,48.1826057434082,17.1620063781738,100,0,,,,,D
000000061600004,616,Vajnorská,,48.184928894043,17.1693782806396,101,0,,,,,D
000000061600003,616,Vajnorská,,48.185230255127,17.1695365905762,101,0,,,,,C
000000049700004,497,Zlaté piesky,,48.1891288757324,17.184326171875,101,0,,,,,D
000000049700003,497,Zlaté piesky,,48.1892318725586,17.1826267242432,101,0,,,,,C
000000060300003,603,Tuhovská,,48.1902503967285,17.1963539123535,101,0,,,,,C
000000049400002,494,Dvojstudňové polia,,48.188835144043,17.1960105895996,101,0,,,,,B
000000024200002,242,"Vajnory, nadjazd",,48.1949424743652,17.1989269256592,101,0,,,,,B
000000024200001,242,"Vajnory, nadjazd",,48.1946296691895,17.1988735198975,101,0,,,,,A
000000031400002,314,OC Vajnory,,48.1992301940918,17.1978282928467,101,0,,,,,B
000000031400001,314,OC Vajnory,,48.1999397277832,17.1980972290039,101,0,,,,,A
000000044300002,443,Uhliská,,48.2015609741211,17.2015151977539,101,0,,,,,B
000000044300001,443,Uhliská,,48.2015838623047,17.2013893127441,101,0,,,,,A
000000045000002,450,MiÚ Vajnory,,48.2048416137695,17.2079334259033,101,0,,,,,B
000000045000001,450,MiÚ Vajnory,,48.2044944763184,17.207311630249,101,0,,,,,A
000000010000002,100,Hospodárska,,48.2071151733398,17.2122631072998,101,0,,,,,B
000000010000001,100,Hospodárska,,48.2070350646973,17.2118968963623,101,0,,,,,A
000000044900002,449,Roľnícka,,48.2086753845215,17.2166500091553,101,0,,,,,B
000000044900001,449,Roľnícka,,48.2089424133301,17.2174015045166,101,0,,,,,A
000000045100002,451,Vajnory,,48.2090873718262,17.2199592590332,101,0,,,,,B
000000045100001,451,Vajnory,,48.209228515625,17.2200088500977,101,0,,,,,A
000000033200008,332,Račianske mýto,,48.1589889526367,17.121561050415,100,0,,,,,H
000000044600004,446,Ursínyho,,48.1627998352051,17.1246032714844,100,0,,,,,D
000000044600003,446,Ursínyho,,48.1616401672363,17.1234855651855,100,0,,,,,C
000000029300003,293,Pionierska,,48.1703567504883,17.1269092559814,100,0,,,,,C
000000033700004,337,Riazanská,,48.1746635437012,17.1276626586914,100,0,,,,,D
000000033700003,337,Riazanská,,48.1721992492676,17.1269187927246,100,0,,,,,C
000000022400004,224,Mladá garda,,48.1793670654297,17.1287651062012,100,0,,,,,D
000000022400003,224,Mladá garda,,48.176887512207,17.1277503967285,100,0,,,,,C
000000024500004,245,Nám. Biely kríž,,48.182788848877,17.1306438446045,100,0,,,,,D
000000024500003,245,Nám. Biely kríž,,48.1815757751465,17.129150390625,100,0,,,,,C
000000052200006,522,Stn. Vinohrady,,48.1857757568359,17.1339111328125,100,0,,,,,F
000000052200005,522,Stn. Vinohrady,,48.1852607727051,17.133020401001,100,0,,,,,E
000000046500004,465,Depo Krasňany,,48.188045501709,17.1356620788574,101,0,,,,,D
000000046500003,465,Depo Krasňany,,48.1879425048828,17.1353511810303,101,0,,,,,C
000000026200004,262,Malokrasňanská,,48.1913375854492,17.139612197876,101,0,,,,,D
000000026200003,262,Malokrasňanská,,48.1908226013184,17.1387367248535,101,0,,,,,C
000000028700004,287,Pekná cesta,,48.196102142334,17.1446990966797,101,0,,,,,D
000000028700003,287,Pekná cesta,,48.1963081359863,17.1446208953857,101,0,,,,,C
000000003600004,36,Černockého,,48.2001075744629,17.1482429504395,101,0,,,,,D
000000003600003,36,Černockého,,48.1992492675781,17.147367477417,101,0,,,,,C
000000009100004,91,Hečkova,,48.2035675048828,17.1501903533936,101,0,,,,,D
000000009100003,91,Hečkova,,48.2035980224609,17.1499633789063,101,0,,,,,C
000000002500002,25,Bukovinská,,48.205509185791,17.1521110534668,101,0,,,,,B
000000002500001,25,Bukovinská,,48.2052040100098,17.1515426635742,101,0,,,,,A
000000070900002,709,Rostovská,,48.2078056335449,17.1543636322021,101,0,,,,,B
000000070900001,709,Rostovská,,48.2078819274902,17.1542167663574,101,0,,,,,A
000000043500002,435,Trávna,,48.2106437683105,17.1578159332275,101,0,,,,,B
000000043500001,435,Trávna,,48.2107124328613,17.1574153900146,101,0,,,,,A
000000042500004,425,Púchovská,,48.2144203186035,17.1632709503174,101,0,,,,,D
000000042500003,425,Púchovská,,48.2147102355957,17.1633853912354,101,0,,,,,C
000000001400001,14,Rybničná,,48.2191696166992,17.1819896697998,101,0,,,,,A
000000027400002,274,"Na pántoch, školy",,48.2165718078613,17.1779975891113,101,0,,,,,B
000000027400001,274,"Na pántoch, školy",,48.2168464660645,17.1785411834717,101,0,,,,,A
000000027500002,275,"Na pántoch, stred",,48.2146873474121,17.1759605407715,101,0,,,,,B
000000027500001,275,"Na pántoch, stred",,48.2144470214844,17.1758041381836,101,0,,,,,A
000000021500002,215,Na pántoch,,48.2131118774414,17.1742343902588,101,0,,,,,B
000000021500001,215,Na pántoch,,48.2125015258789,17.1733646392822,101,0,,,,,A
000000011600002,116,Ihrisková,,48.2079734802246,17.1591167449951,101,0,,,,,B
000000038300001,383,Stolárska,,48.2083206176758,17.1554279327393,101,0,,,,,A
000000028300002,283,Pastierska,,48.2061882019043,17.1587543487549,101,0,,,,,B
000000028300001,283,Pastierska,,48.2061805725098,17.158899307251,101,0,,,,,A
000000049300002,493,Pri Šajbách,,48.2026443481445,17.1626682281494,101,0,,,,,B
000000049300001,493,Pri Šajbách,,48.2034950256348,17.1612129211426,101,0,,,,,A
000000035500002,355,Sklabinská,,48.2007369995117,17.1637058258057,101,0,,,,,B
000000035500001,355,Sklabinská,,48.2010307312012,17.1639442443848,101,0,,,,,A
000000019500002,195,Rušňové depo I,,48.1994285583496,17.1652698516846,101,0,,,,,B
000000019500001,195,Rušňové depo I,,48.1994705200195,17.1652374267578,101,0,,,,,A
000000047200002,472,Východné,,48.1986503601074,17.1693782806396,101,0,,,,,B
000000047200001,472,Východné,,48.1988525390625,17.1689128875732,101,0,,,,,A
000000023800002,238,Na pasekách,,48.1974678039551,17.1727809906006,101,0,,,,,B
000000023800001,238,Na pasekách,,48.1980895996094,17.1719264984131,101,0,,,,,A
000000019600002,196,Rušňové depo II,,48.1962127685547,17.1793575286865,101,0,,,,,B
000000019600001,196,Rušňové depo II,,48.1963119506836,17.1786556243896,101,0,,,,,A
000000051000002,510,Staré letisko,,48.1968879699707,17.1920108795166,101,0,,,,,B
000000051000001,510,Staré letisko,,48.1967239379883,17.1914710998535,101,0,,,,,A
000000031400004,314,OC Vajnory,,48.1986656188965,17.1955909729004,101,0,,,,,D
000000068900001,689,Suché mýto,,48.1466979980469,17.1068859100342,100,0,,,,,A
000000068900002,689,Suché mýto,,48.1463928222656,17.1071014404297,100,0,,,,,B
000000053800002,538,Dunajská,,48.144832611084,17.1161556243896,100,0,,,,,B
000000053800001,538,Dunajská,,48.144832611084,17.1161556243896,100,0,,,,,A
000000007200002,72,Dulovo nám.,,48.1495819091797,17.134593963623,100,0,,,,,B
000000007200001,72,Dulovo nám.,,48.1494369506836,17.1342525482178,100,0,,,,,A
000000058200002,582,Trhovisko,,48.1525039672852,17.1359806060791,100,0,,,,,B
000000006700004,67,Drieňová,,48.157772064209,17.1443061828613,100,0,,,,,D
000000006700002,67,Drieňová,,48.1577644348145,17.1437950134277,100,0,,,,,B
000000043000002,430,Úrad BSK,,48.1601181030273,17.1483707427979,100,0,,,,,B
000000043000001,430,Úrad BSK,,48.1603851318359,17.1501693725586,100,0,,,,,A
000000036900002,369,Solivarská,,48.1606369018555,17.1539840698242,100,0,,,,,B
000000036900001,369,Solivarská,,48.1607513427734,17.1550102233887,100,0,,,,,A
000000045700001,457,Zálužická,,48.1623992919922,17.1581993103027,100,0,,,,,A
000000008400002,84,Haburská,,48.1636199951172,17.154109954834,100,0,,,,,B
000000008400001,84,Haburská,,48.1630821228027,17.1556777954102,100,0,,,,,A
000000011700004,117,Klientske centrum,,48.1643905639648,17.1513137817383,100,0,,,,,D
000000023400004,234,Líščie nivy,,48.1558990478516,17.142505645752,100,0,,,,,D
000000023400003,234,Líščie nivy,,48.1558723449707,17.1408176422119,100,0,,,,,C
000000030800004,308,Nemocnica Ružinov,,48.1565856933594,17.1519908905029,100,0,,,,,D
000000030800003,308,Nemocnica Ružinov,,48.1567611694336,17.1507835388184,100,0,,,,,C
000000009200004,92,Herlianska,,48.1568908691406,17.1561031341553,100,0,,,,,D
000000009200003,92,Herlianska,,48.1571006774902,17.1552600860596,100,0,,,,,C
000000043200004,432,Tomášikova,,48.1572761535645,17.1613159179688,100,0,,,,,D
000000043200003,432,Tomášikova,,48.1574859619141,17.1605052947998,100,0,,,,,C
000000039100004,391,Súmračná,,48.1578521728516,17.1688385009766,100,0,,,,,D
000000039100003,391,Súmračná,,48.1580390930176,17.1679935455322,100,0,,,,,C
000000000600004,6,Astronomická,,48.1585426330566,17.1784191131592,100,0,,,,,D
000000000600003,6,Astronomická,,48.1586761474609,17.1768054962158,100,0,,,,,C
000000044700002,447,Pod gaštanmi,,48.1575508117676,17.1898784637451,101,0,,,,,B
000000044700001,447,Pod gaštanmi,,48.1582260131836,17.1889762878418,101,0,,,,,A
000000046700002,467,Podpriehradná,,48.1535148620605,17.1966209411621,101,0,,,,,B
000000046700001,467,Podpriehradná,,48.1547698974609,17.194486618042,101,0,,,,,A
000000020700002,207,Majerská,,48.1513023376465,17.2012481689453,101,0,,,,,B
000000020700001,207,Majerská,,48.1518478393555,17.200366973877,101,0,,,,,A
000000040000002,400,Šípová,,48.149341583252,17.204381942749,101,0,,,,,B
000000040000001,400,Šípová,,48.1499404907227,17.2038955688477,101,0,,,,,A
000000040100002,401,MiÚ Vrakuňa,,48.1457901000977,17.2052917480469,101,0,,,,,B
000000040100001,401,MiÚ Vrakuňa,,48.1461601257324,17.2057514190674,101,0,,,,,A
000000007800002,78,Estónska,,48.1430931091309,17.2035903930664,101,0,,,,,B
000000007800001,78,Estónska,,48.1441192626953,17.2041778564453,101,0,,,,,A
000000037800002,378,Stavbárska,,48.1403503417969,17.2026805877686,101,0,,,,,B
000000037800001,378,Stavbárska,,48.1399879455566,17.2027683258057,101,0,,,,,A
000000001700002,17,Bodrocká,,48.1323890686035,17.2089786529541,101,0,,,,,B
000000015900002,159,Korytnická,,48.1304740905762,17.2060947418213,101,0,,,,,B
000000024300002,243,Nákupná,,48.1287040710449,17.2082786560059,101,0,,,,,B
000000044200002,442,Učiteľská,,48.1268272399902,17.2126369476318,101,0,,,,,B
000000044500002,445,8. mája,,48.1282691955566,17.2170677185059,101,0,,,,,B
000000051600001,516,Stn. P. Biskupice,,48.1305541992188,17.2207984924316,101,0,,,,,A
000000034400001,344,Súhvezdná,,48.1611595153809,17.1771144866943,100,0,,,,,A
000000000600006,6,Astronomická,,48.1591682434082,17.1772022247314,100,0,,,,,F
000000026400002,264,DK Ružinov,,48.1552238464355,17.1632881164551,100,0,,,,,B
000000026400001,264,DK Ružinov,,48.1566543579102,17.1631488800049,100,0,,,,,A
000000025500002,255,Nevädzová,,48.1523017883301,17.1641616821289,100,0,,,,,B
000000025500001,255,Nevädzová,,48.1522750854492,17.1643962860107,100,0,,,,,A
000000021800003,218,Mierová,,48.1492195129395,17.1658821105957,100,0,,,,,C
000000021800001,218,Mierová,,48.149730682373,17.1665058135986,100,0,,,,,A
000000014700001,147,MiÚ Ružinov,,48.1492538452148,17.1632633209229,100,0,,,,,A
000000014700002,147,MiÚ Ružinov,,48.1491203308105,17.1643905639648,100,0,,,,,B
000000010400003,104,Hraničná,,48.1490631103516,17.1582355499268,100,0,,,,,C
000000010400004,104,Hraničná,,48.1491813659668,17.157470703125,100,0,,,,,D
000000032500004,325,Prievozská,,48.1481437683105,17.1497192382813,100,0,,,,,D
000000032800002,328,Prístavný most,,48.1444091796875,17.151330947876,100,0,,,,,B
000000032800001,328,Prístavný most,,48.1451644897461,17.1513977050781,100,0,,,,,A
000000015400002,154,Pálenisko,,48.1359405517578,17.1567935943604,100,0,,,,,B
000000042800002,428,Piesčiny,,48.1349296569824,17.1623001098633,100,0,,,,,B
000000042800001,428,Piesčiny,,48.1354598999023,17.1609725952148,100,0,,,,,A
000000028600002,286,Čierny les,,48.1331787109375,17.170654296875,100,0,,,,,B
000000028600001,286,Čierny les,,48.1329956054688,17.1711616516113,100,0,,,,,A
000000036200001,362,Vlčie hrdlo,,48.1284942626953,17.1750259399414,100,0,,,,,A
000000023500002,235,Muchovo nám.,,48.1287841796875,17.1139221191406,100,0,,,,,B
000000007900007,79,Farského,,48.1278381347656,17.1175804138184,100,0,,,,,G
000000007900005,79,Farského,,48.1285743713379,17.1166915893555,100,0,,,,,E
000000022600002,226,Mlynarovičova,,48.1277275085449,17.1218528747559,100,0,,,,,B
000000022600001,226,Mlynarovičova,,48.1279106140137,17.1198806762695,100,0,,,,,A
000000002000003,20,Bosákova,,48.1277275085449,17.1233787536621,100,0,,,,,C
000000041600002,416,Šustekova,,48.1259574890137,17.1257400512695,100,0,,,,,B
000000041600001,416,Šustekova,,48.1261138916016,17.1252593994141,100,0,,,,,A
000000002700002,27,Bulíkova,,48.124568939209,17.1288223266602,100,0,,,,,B
000000002700001,27,Bulíkova,,48.1241455078125,17.1292514801025,100,0,,,,,A
000000027700002,277,Ovsištské nám.,,48.1202087402344,17.1305732727051,100,0,,,,,B
000000027700001,277,Ovsištské nám.,,48.1204223632813,17.1306438446045,100,0,,,,,A
000000027600001,276,Ovsište,,48.1186103820801,17.1320247650146,100,0,,,,,A
000000018200002,182,Lachova,,48.1244583129883,17.1203136444092,100,0,,,,,B
000000018200001,182,Lachova,,48.1250953674316,17.1211833953857,100,0,,,,,A
000000037600002,376,Starohájska,,48.1196212768555,17.117748260498,100,0,,,,,B
000000037600001,376,Starohájska,,48.1201324462891,17.1196880340576,100,0,,,,,A
000000021000002,210,Markova,,48.1174011230469,17.1049480438232,100,0,,,,,B
000000021000001,210,Markova,,48.1173782348633,17.1064720153809,100,0,,,,,A
000000041700002,417,Švabinského,,48.1146202087402,17.1017265319824,100,0,,,,,B
000000041700001,417,Švabinského,,48.1150360107422,17.1022853851318,100,0,,,,,A
000000013100002,131,Jiráskova,,48.1123657226563,17.0986804962158,100,0,,,,,B
000000013100001,131,Jiráskova,,48.1117935180664,17.0993671417236,100,0,,,,,A
000000015800002,158,Bratská,,48.1149368286133,17.0928077697754,100,0,,,,,B
000000015800001,158,Bratská,,48.1146240234375,17.0930194854736,100,0,,,,,A
000000049000002,490,"Kopčianska, stred",,48.1187362670898,17.0959911346436,100,0,,,,,B
000000049000001,490,"Kopčianska, stred",,48.1183052062988,17.0956077575684,100,0,,,,,A
000000051700004,517,Stn. Petržalka,,48.1213569641113,17.097375869751,100,0,,,,,D
000000051700003,517,Stn. Petržalka,,48.1209487915039,17.0975036621094,100,0,,,,,C
000000017800001,178,Kapitulský dvor,,48.1228828430176,17.0927963256836,100,0,,,,,A
000000012700003,127,Jasovská,,48.0945014953613,17.1183223724365,100,0,,,,,C
000000050600001,506,Žehrianska,,48.0957946777344,17.119836807251,100,0,,,,,A
000000040900002,409,Gaštanová aleja,,48.042724609375,17.1562919616699,101,0,,,,,B
000000040900001,409,Gaštanová aleja,,48.0434341430664,17.1557788848877,101,0,,,,,A
000000060400002,604,Pieskový hon,,48.038013458252,17.1614189147949,101,0,,,,,B
000000060400001,604,Pieskový hon,,48.038501739502,17.1609535217285,101,0,,,,,A
000000005000002,50,Čunovské jazerá,,48.0326995849609,17.1656055450439,101,0,,,,,B
000000005000001,50,Čunovské jazerá,,48.0330657958984,17.1654853820801,101,0,,,,,A
000000073100002,731,Konopiská,,48.0282821655273,17.1919803619385,101,0,,,,,B
000000073100001,731,Konopiská,,48.0288238525391,17.190559387207,101,0,,,,,A
000000004800002,48,MiÚ Čunovo,,48.0286254882813,17.1980514526367,101,0,,,,,B
000000004800001,48,MiÚ Čunovo,,48.0274505615234,17.196741104126,101,0,,,,,A
000000004900002,49,"Čunovo, kostol",,48.0313301086426,17.1998481750488,101,0,,,,,B
000000004900001,49,"Čunovo, kostol",,48.0312042236328,17.1996440887451,101,0,,,,,A
000000004700002,47,Čunovo,,48.0338668823242,17.1957893371582,101,0,,,,,B
000000004700001,47,Čunovo,,48.0341682434082,17.1958236694336,101,0,,,,,A
000000034300002,343,Rusovská cesta,,48.1234664916992,17.1025085449219,100,0,,,,,B
000000034300001,343,Rusovská cesta,,48.1237945556641,17.103199005127,100,0,,,,,A
000000060500002,605,Ševčenkova,,48.1185302734375,17.0981903076172,100,0,,,,,B
000000060500001,605,Ševčenkova,,48.1160087585449,17.0966567993164,100,0,,,,,A
000000036700002,367,Smolenická,,48.108642578125,17.1008033752441,100,0,,,,,B
000000036700001,367,Smolenická,,48.1093978881836,17.1010646820068,100,0,,,,,A
000000020200002,202,Lúky II,,48.1074371337891,17.0982112884521,100,0,,,,,B
000000020200001,202,Lúky II,,48.1070899963379,17.0984230041504,100,0,,,,,A
000000050200002,502,ZŠ Budatínska,,48.1024742126465,17.0998039245605,100,0,,,,,B
000000050200001,502,ZŠ Budatínska,,48.1030349731445,17.099494934082,100,0,,,,,A
000000002400004,24,Budatínska,,48.0996780395508,17.1015338897705,100,0,,,,,D
000000002400003,24,Budatínska,,48.1009063720703,17.1011295318604,100,0,,,,,C
000000050600002,506,Žehrianska,,48.0969619750977,17.1208438873291,100,0,,,,,B
000000012700005,127,Jasovská,,48.0940132141113,17.1176052093506,100,0,,,,,E
000000017200002,172,Kremnická,,48.1282577514648,17.0938758850098,100,0,,,,,B
000000017200001,172,Kremnická,,48.1288070678711,17.093692779541,100,0,,,,,A
000000048700002,487,Záporožská,,48.1253280639648,17.0966949462891,100,0,,,,,B
000000048700001,487,Záporožská,,48.1263656616211,17.0959663391113,100,0,,,,,A
000000061900002,619,Gercenova,,48.1240348815918,17.1000709533691,100,0,,,,,B
000000061900001,619,Gercenova,,48.1241569519043,17.1005973815918,100,0,,,,,A
000000027600002,276,Ovsište,,48.1184501647949,17.1319770812988,100,0,,,,,B
000000007900006,79,Farského,,48.1273956298828,17.1163425445557,100,0,,,,,F
000000020400001,204,Tupolevova,,48.1109161376953,17.1060829162598,100,0,,,,,A
000000020400002,204,Tupolevova,,48.1108665466309,17.104585647583,100,0,,,,,B
000000039900002,399,Šintavská,,48.106330871582,17.1073474884033,100,0,,,,,B
000000009600001,96,Holíčska,,48.1073036193848,17.1029834747314,100,0,,,,,A
000000009600002,96,Holíčska,,48.1066055297852,17.1043682098389,100,0,,,,,B
000000017600002,176,Slovany,,48.1731147766113,17.1294651031494,100,0,,,,,B
000000008600001,86,Hálkova,,48.1718711853027,17.1331939697266,100,0,,,,,A
000000008600002,86,Hálkova,,48.1716499328613,17.1340408325195,100,0,,,,,B
000000021300005,213,MiÚ Nové Mesto,,48.1697998046875,17.1383876800537,100,0,,,,,E
000000021300006,213,MiÚ Nové Mesto,,48.1698341369629,17.138427734375,100,0,,,,,F
000000051500003,515,Stn. Nové Mesto,,48.1710739135742,17.1464824676514,100,0,,,,,C
000000051500004,515,Stn. Nové Mesto,,48.1711616516113,17.1465587615967,100,0,,,,,D
000000011700003,117,Klientske centrum,,48.1664428710938,17.1501159667969,100,0,,,,,C
000000021400001,214,Maximiliána Hella,,48.1592826843262,17.1624412536621,100,0,,,,,A
000000021400002,214,Maximiliána Hella,,48.1602172851563,17.1619396209717,100,0,,,,,B
000000030700001,307,Landererova,,48.1424255371094,17.125452041626,100,0,,,,,A
000000058100002,581,Most Apollo,,48.1390571594238,17.1282901763916,100,0,,,,,B
000000039000002,390,OC Einsteinova,,48.1320915222168,17.107551574707,100,0,,,,,B
000000039000001,390,OC Einsteinova,,48.1319465637207,17.1085376739502,100,0,,,,,A
000000026800006,268,Odborárska,,48.1766777038574,17.1448059082031,100,0,,,,,F
000000037500001,375,Staré ihrisko,,48.1802291870117,17.1367683410645,100,0,,,,,A
000000037500002,375,Staré ihrisko,,48.1798896789551,17.1374435424805,100,0,,,,,B
000000043800001,438,Trojdomy,,48.1822853088379,17.1351280212402,100,0,,,,,A
000000043800002,438,Trojdomy,,48.1818809509277,17.1346035003662,100,0,,,,,B
000000025600002,256,Nobelova,,48.1858901977539,17.1374492645264,100,0,,,,,B
000000025600001,256,Nobelova,,48.185863494873,17.1372909545898,100,0,,,,,A
000000046500006,465,Depo Krasňany,,48.1882972717285,17.1349506378174,101,0,,,,,F
000000046500005,465,Depo Krasňany,,48.1882400512695,17.1348648071289,101,0,,,,,E
000000052100001,521,Stn. Vajnory,,48.195426940918,17.2055015563965,101,0,,,,,A
000000052100002,521,Stn. Vajnory,,48.1956214904785,17.2054023742676,101,0,,,,,B
000000031100002,311,Pri mlyne,,48.1982536315918,17.2111167907715,101,0,,,,,B
000000030500002,305,Pračanská,,48.201358795166,17.208158493042,101,0,,,,,B
000000030500003,305,Pračanská,,48.1994018554688,17.2063655853271,101,0,,,,,C
000000004100001,41,Čierny chodník,,48.2022819519043,17.2037696838379,101,0,,,,,A
000000071300003,713,Detvianska,,48.2115821838379,17.1548175811768,101,0,,,,,C
000000071300004,713,Detvianska,,48.2109642028809,17.1558609008789,101,0,,,,,D
000000048900002,489,Závadská,,48.2139358520508,17.1573543548584,101,0,,,,,B
000000048900001,489,Závadská,,48.2136650085449,17.1568965911865,101,0,,,,,A
000000041900002,419,Tbiliská,,48.2155227661133,17.1593608856201,101,0,,,,,B
000000041900001,419,Tbiliská,,48.2153663635254,17.1588554382324,101,0,,,,,A
000000074600002,746,Drozdová,,48.2163505554199,17.1504859924316,101,0,,,,,B
000000074600001,746,Drozdová,,48.2160339355469,17.1508159637451,101,0,,,,,A
000000050400002,504,Zvončeková,,48.21826171875,17.1502780914307,101,0,,,,,B
000000050400001,504,Zvončeková,,48.2177886962891,17.150333404541,101,0,,,,,A
000000052400002,524,Potočná,,48.2221031188965,17.1485939025879,101,0,,,,,B
000000052400001,524,Potočná,,48.2220230102539,17.1485328674316,101,0,,,,,A
000000043700008,437,Trnavské mýto,,48.1584091186523,17.1299133300781,100,0,,,,,H
000000043700007,437,Trnavské mýto,,48.1584587097168,17.1302852630615,100,0,,,,,G
000000025700004,257,Nová doba,,48.1651000976563,17.1363410949707,100,0,,,,,D
000000046600002,466,Depo Trnávka,,48.1744537353516,17.1639022827148,100,0,,,,,B
000000046600001,466,Depo Trnávka,,48.1746711730957,17.1637878417969,100,0,,,,,A
000000001800002,18,Bojnická,,48.1781349182129,17.1680145263672,100,0,,,,,B
000000001800001,18,Bojnická,,48.1771583557129,17.1666450500488,100,0,,,,,A
000000005200002,52,OC Rožňavská,,48.1829299926758,17.1721286773682,101,0,,,,,B
000000005200001,52,OC Rožňavská,,48.1824607849121,17.171293258667,101,0,,,,,A
000000045600001,456,Studená,,48.1805114746094,17.1793346405029,101,0,,,,,A
000000045600002,456,Studená,,48.1803817749023,17.1790580749512,101,0,,,,,B
000000022300001,223,"Studená, zastávka",,48.1844367980957,17.1768932342529,101,0,,,,,A
000000022300002,223,"Studená, zastávka",,48.1827812194824,17.1776485443115,101,0,,,,,B
000000034100004,341,Shopping Palace,,48.1872062683105,17.1766395568848,101,0,,,,,D
000000024700002,247,Nám. A. Hlinku,,48.2131614685059,17.1523590087891,101,0,,,,,B
000000001200002,12,Barónka,,48.2115936279297,17.1472339630127,101,0,,,,,B
000000045800002,458,"Kubačova, NKD",,48.2086219787598,17.1501407623291,101,0,,,,,B
000000033100002,331,MiÚ Rača,,48.2111015319824,17.1537303924561,101,0,,,,,B
000000041900003,419,Tbiliská,,48.2153358459473,17.1590023040771,101,0,,,,,C
000000066500002,665,Karpatské nám.,,48.2160720825195,17.1619396209717,101,0,,,,,B
000000066500001,665,Karpatské nám.,,48.2160720825195,17.1626949310303,101,0,,,,,A
000000071500002,715,OC Rača,,48.2122573852539,17.1637516021729,101,0,,,,,B
000000071500001,715,OC Rača,,48.2126235961914,17.1624794006348,101,0,,,,,A
000000046400003,464,Depo Jurajov dvor,,48.1815605163574,17.1612186431885,100,0,,,,,C
000000046400004,464,Depo Jurajov dvor,,48.1813163757324,17.1613426208496,100,0,,,,,D
000000013300003,133,Jurajov dvor,,48.183277130127,17.1626949310303,100,0,,,,,C
000000031200002,312,Pri nadjazde,,48.1874961853027,17.1594333648682,101,0,,,,,B
000000031200001,312,Pri nadjazde,,48.186840057373,17.159875869751,101,0,,,,,A
000000006400002,64,Mokraď,,48.194164276123,17.1572208404541,101,0,,,,,B
000000006400001,64,Mokraď,,48.1938018798828,17.1571922302246,101,0,,,,,A
000000032200002,322,Mikulášov dvor,,48.1959648132324,17.1613063812256,101,0,,,,,B
000000032200001,322,Mikulášov dvor,,48.196216583252,17.16042137146,101,0,,,,,A
000000027900002,279,Žabí majer,,48.1952438354492,17.1659126281738,101,0,,,,,B
000000027900001,279,Žabí majer,,48.1953086853027,17.165901184082,101,0,,,,,A
000000031900002,319,Pribylinská,,48.1925392150879,17.1588821411133,101,0,,,,,B
000000038000002,380,Staviteľská,,48.1905059814453,17.1638946533203,101,0,,,,,B
000000038100002,381,Stavivá,,48.1912307739258,17.1699161529541,101,0,,,,,B
000000063200001,632,Kalné jazero,,48.1938438415527,17.1768341064453,101,0,,,,,A
000000063300001,633,Spádovisko I,,48.1932678222656,17.1816539764404,101,0,,,,,A
000000063400001,634,Spádovisko II,,48.1912269592285,17.1843852996826,101,0,,,,,A
000000034100009,341,Shopping Palace,,48.1881523132324,17.1776809692383,101,0,,,,,I
000000049600001,496,Stará Vajnorská,,48.1875038146973,17.1708030700684,101,0,,,,,A
000000023300001,233,OC Stará Vajnorská,,48.1861457824707,17.1651782989502,101,0,,,,,A
000000025300002,253,Nemocnica Antolská,,48.1014404296875,17.115421295166,100,0,,,,,B
000000025300001,253,Nemocnica Antolská,,48.1012153625488,17.1153240203857,100,0,,,,,A
000000052300002,523,Antolská,,48.1039733886719,17.1156902313232,100,0,,,,,B
000000052300001,523,Antolská,,48.1032981872559,17.1155109405518,100,0,,,,,A
000000055300002,553,Avion Shop. Park,,48.1674690246582,17.1791439056396,101,0,,,,,B
000000059600003,596,Vajnorský potok,,48.2215728759766,17.1782112121582,101,0,,,,,C
000000001400002,14,Rybničná,,48.2193756103516,17.1820068359375,101,0,,,,,B
000000040400002,404,Sprinzlov majer,,48.2147941589355,17.1897773742676,101,0,,,,,B
000000040400001,404,Sprinzlov majer,,48.2153167724609,17.1894836425781,101,0,,,,,A
000000046300002,463,Regrútska,,48.2118797302246,17.1935844421387,101,0,,,,,B
000000046300001,463,Regrútska,,48.2120742797852,17.1933937072754,101,0,,,,,A
000000015700002,157,Koniarkova,,48.206241607666,17.2023906707764,101,0,,,,,B
000000015700001,157,Koniarkova,,48.2068023681641,17.2013683319092,101,0,,,,,A
000000027300002,273,Osloboditeľská,,48.2037620544434,17.2033596038818,101,0,,,,,B
000000027300001,273,Osloboditeľská,,48.204647064209,17.2034873962402,101,0,,,,,A
000000060300002,603,Tuhovská,,48.1912879943848,17.196590423584,101,0,,,,,B
000000049700006,497,Zlaté piesky,,48.1895408630371,17.1825580596924,101,0,,,,,F
000000034100006,341,Shopping Palace,,48.1883697509766,17.1773681640625,101,0,,,,,F
000000049600002,496,Stará Vajnorská,,48.1874122619629,17.1703472137451,101,0,,,,,B
000000023300002,233,OC Stará Vajnorská,,48.1862678527832,17.1655578613281,101,0,,,,,B
000000013300006,133,Jurajov dvor,,48.1821136474609,17.1632404327393,100,0,,,,,F
000000001800004,18,Bojnická,,48.1789207458496,17.1657218933105,100,0,,,,,D
000000001800003,18,Bojnická,,48.1782035827637,17.1666831970215,100,0,,,,,C
000000036400002,364,Slovnaftská,,48.1308631896973,17.1972103118896,101,0,,,,,B
000000036400001,364,Slovnaftská,,48.1309623718262,17.1958103179932,101,0,,,,,A
000000029700002,297,Podzáhradná,,48.1335372924805,17.204231262207,101,0,,,,,B
000000029700001,297,Podzáhradná,,48.1335945129395,17.2038078308105,101,0,,,,,A
000000070400001,704,Grófska niva,,48.1446990966797,17.1588973999023,100,0,,,,,A
000000070400002,704,Grófska niva,,48.1447105407715,17.158239364624,100,0,,,,,B
000000070300001,703,Stachanovská,,48.1460647583008,17.1597309112549,100,0,,,,,A
000000070300002,703,Stachanovská,,48.1455955505371,17.1600933074951,100,0,,,,,B
000000010400007,104,Hraničná,,48.1480178833008,17.1581058502197,100,0,,,,,G
000000032500003,325,Prievozská,,48.1496276855469,17.1495056152344,100,0,,,,,C
000000022500002,225,Mliekarenská,,48.1531295776367,17.1468238830566,100,0,,,,,B
000000021800002,218,Mierová,,48.148754119873,17.1669826507568,100,0,,,,,B
000000016500002,165,Krásna,,48.1457405090332,17.1687202453613,100,0,,,,,B
000000016500001,165,Krásna,,48.1456336975098,17.1684818267822,100,0,,,,,A
000000052500002,525,Syslia,,48.1427154541016,17.1686592102051,100,0,,,,,B
000000052500001,525,Syslia,,48.1428756713867,17.1689701080322,100,0,,,,,A
000000051900002,519,Stn. ÚNS,,48.1419906616211,17.1729278564453,100,0,,,,,B
000000051900001,519,Stn. ÚNS,,48.1421432495117,17.1723976135254,100,0,,,,,A
000000006300002,63,Domkárska,,48.1430358886719,17.1807975769043,100,0,,,,,B
000000006300001,63,Domkárska,,48.143009185791,17.180606842041,100,0,,,,,A
000000050800002,508,Železničná,,48.1473274230957,17.2097625732422,101,0,,,,,B
000000050800001,508,Železničná,,48.1476974487305,17.209135055542,101,0,,,,,A
000000001700001,17,Bodrocká,,48.1325492858887,17.208963394165,101,0,,,,,A
000000015900001,159,Korytnická,,48.1306686401367,17.2066593170166,101,0,,,,,A
000000024300001,243,Nákupná,,48.1286697387695,17.2085933685303,101,0,,,,,A
000000027800001,278,MiÚ P. Biskupice,,48.1249313354492,17.2109432220459,101,0,,,,,A
000000027800003,278,MiÚ P. Biskupice,,48.1248779296875,17.2117691040039,101,0,,,,,C
000000005500002,55,Devätinová,,48.1220626831055,17.2154769897461,101,0,,,,,B
000000005500001,55,Devätinová,,48.1218490600586,17.2167510986328,101,0,,,,,A
000000042900001,429,Vinohradnícka,,48.1228561401367,17.2190761566162,101,0,,,,,A
000000075800002,758,Ligurčeková,,48.1176986694336,17.2193222045898,101,0,,,,,B
000000075700001,757,Farmárska,,48.119945526123,17.2206363677979,101,0,,,,,A
000000075900001,759,Ovčiarska,,48.1172790527344,17.2162418365479,101,0,,,,,A
000000058100001,581,Most Apollo,,48.1395034790039,17.1287326812744,100,0,,,,,A
000000032700001,327,Prístavná,,48.1428375244141,17.1306552886963,100,0,,,,,A
000000016000005,160,Košická,,48.146411895752,17.1328010559082,100,0,,,,,E
000000016000006,160,Košická,,48.1447448730469,17.1313991546631,100,0,,,,,F
000000072800001,728,Galvaniho,,48.1638946533203,17.1770153045654,101,0,,,,,A
000000072500001,725,Krížové polia,,48.1624488830566,17.1788349151611,101,0,,,,,A
000000070500001,705,Pharos,,48.1624717712402,17.188720703125,101,0,,,,,A
000000072600001,726,"Letisko, cargo",,48.164981842041,17.1886539459229,101,0,,,,,A
000000072700001,727,Letové služby,,48.1689910888672,17.1898498535156,101,0,,,,,A
000000036200002,362,Vlčie hrdlo,,48.1286506652832,17.1760883331299,100,0,,,,,B
000000012000002,120,"V. hrdlo, internát",,48.1292915344238,17.1798343658447,101,0,,,,,B
000000012000001,120,"V. hrdlo, internát",,48.1294136047363,17.1791725158691,101,0,,,,,A
000000011200002,112,Závodná,,48.1299438476563,17.1864051818848,101,0,,,,,B
000000011200001,112,Závodná,,48.1302299499512,17.1870975494385,101,0,,,,,A
000000069600002,696,OC Slovnaftská,,48.1304588317871,17.1899242401123,101,0,,,,,B
000000069600001,696,OC Slovnaftská,,48.1307067871094,17.1919746398926,101,0,,,,,A
000000039800002,398,Šikmá,,48.1273231506348,17.2030239105225,101,0,,,,,B
000000039800001,398,Šikmá,,48.1271705627441,17.2033920288086,101,0,,,,,A
000000025400002,254,Nem. P. Biskupice,,48.1243476867676,17.2073345184326,101,0,,,,,B
000000025400001,254,Nem. P. Biskupice,,48.1241645812988,17.2076854705811,101,0,,,,,A
000000027800002,278,MiÚ P. Biskupice,,48.1249847412109,17.2112789154053,101,0,,,,,B
000000044200001,442,Učiteľská,,48.1273803710938,17.2127819061279,101,0,,,,,A
000000029100001,291,Petőfiho,,48.128719329834,17.2159214019775,101,0,,,,,A
000000051600002,516,Stn. P. Biskupice,,48.130443572998,17.2208862304688,101,0,,,,,B
000000006700001,67,Drieňová,,48.1588821411133,17.1432628631592,100,0,,,,,A
000000000800005,8,Bajkalská,,48.1620407104492,17.1404418945313,100,0,,,,,E
000000000800004,8,Bajkalská,,48.1608009338379,17.1410388946533,100,0,,,,,D
000000025700003,257,Nová doba,,48.1654243469238,17.1365051269531,100,0,,,,,C
000000013800002,138,Kadnárova,,48.1993713378906,17.1409320831299,101,0,,,,,B
000000013800001,138,Kadnárova,,48.1991767883301,17.1409358978271,101,0,,,,,A
000000036200003,362,Vlčie hrdlo,,48.128547668457,17.1759052276611,100,0,,,,,C
000000036200004,362,Vlčie hrdlo,,48.1286125183105,17.1749858856201,100,0,,,,,D
000000036300002,363,Zajačie,,48.1289024353027,17.165771484375,100,0,,,,,B
000000036300001,363,Zajačie,,48.1288299560547,17.1657905578613,100,0,,,,,A
000000019400002,194,Lodenica,,48.1283416748047,17.158805847168,100,0,,,,,B
000000019400001,194,Lodenica,,48.1286010742188,17.1588344573975,100,0,,,,,A
000000030300001,303,Povodie Dunaja,,48.1238594055176,17.1587562561035,100,0,,,,,A
000000060900002,609,"V. hrdlo, záhrady",,48.1222915649414,17.1613731384277,100,0,,,,,B
000000060900001,609,"V. hrdlo, záhrady",,48.1223907470703,17.161449432373,100,0,,,,,A
000000022000002,220,Micherov majer,,48.1173286437988,17.1638355255127,100,0,,,,,B
000000022000001,220,Micherov majer,,48.1164894104004,17.1632061004639,100,0,,,,,A
000000004400002,44,ČOV Vlčie hrdlo,,48.112663269043,17.1658458709717,100,0,,,,,B
000000004400001,44,ČOV Vlčie hrdlo,,48.1128082275391,17.1658401489258,100,0,,,,,A
000000037200001,372,Spaľovňa,,48.1077041625977,17.1674327850342,100,0,,,,,A
000000051600003,516,Stn. P. Biskupice,,48.1307373046875,17.2208404541016,101,0,,,,,C
000000051600004,516,Stn. P. Biskupice,,48.1312141418457,17.2199382781982,101,0,,,,,D
000000000800003,8,Bajkalská,,48.161018371582,17.1395893096924,100,0,,,,,C
000000060700002,607,Nové SND,,48.1408004760742,17.1209449768066,100,0,,,,,B
000000060700001,607,Nové SND,,48.1407699584961,17.1211929321289,100,0,,,,,A
000000001300002,13,Lieskovská cesta,,48.1208114624023,17.2058181762695,101,0,,,,,B
000000001300001,13,Lieskovská cesta,,48.1205215454102,17.205738067627,101,0,,,,,A
000000029900002,299,PD P. Biskupice,,48.1185531616211,17.2048816680908,101,0,,,,,B
000000029900001,299,PD P. Biskupice,,48.1190223693848,17.2051868438721,101,0,,,,,A
000000011300002,113,Jánske hony,,48.1146430969238,17.2032432556152,101,0,,,,,B
000000011300001,113,Jánske hony,,48.1147689819336,17.203405380249,101,0,,,,,A
000000032900002,329,Plniareň plynu,,48.111988067627,17.2023029327393,101,0,,,,,B
000000032900001,329,Plniareň plynu,,48.1119651794434,17.2023582458496,101,0,,,,,A
000000019100001,191,Lieskovec,,48.1016273498535,17.1984157562256,101,0,,,,,A
000000049700010,497,Zlaté piesky,,48.1885414123535,17.1841125488281,101,0,,,,,J
000000034100008,341,Shopping Palace,,48.1875152587891,17.1766948699951,101,0,,,,,H
000000013300008,133,Jurajov dvor,,48.1828804016113,17.1638240814209,100,0,,,,,H
000000051700002,517,Stn. Petržalka,,48.1213722229004,17.0978755950928,100,0,,,,,B
000000051700001,517,Stn. Petržalka,,48.1221466064453,17.0986499786377,100,0,,,,,A
000000061700002,617,Dargovská,,48.1204261779785,17.0892295837402,100,0,,,,,B
000000061700001,617,Dargovská,,48.120189666748,17.0900249481201,100,0,,,,,A
000000057900001,579,Cintorín Petržalka,,48.1187324523926,17.0867691040039,100,0,,,,,A
000000057900002,579,Cintorín Petržalka,,48.118766784668,17.0868473052979,100,0,,,,,B
000000052800002,528,"Kopčany, sídlisko",,48.1137313842773,17.0926094055176,100,0,,,,,B
000000052800001,528,"Kopčany, sídlisko",,48.1142311096191,17.0931034088135,100,0,,,,,A
000000074900002,749,Kopčianska,,48.1078071594238,17.087739944458,100,0,,,,,B
000000074900001,749,Kopčianska,,48.1078338623047,17.0878391265869,100,0,,,,,A
000000075000002,750,Nesto,,48.1048583984375,17.085168838501,100,0,,,,,B
000000075000001,750,Nesto,,48.1050453186035,17.0855350494385,100,0,,,,,A
000000042600002,426,Kutlíkova,,48.1103820800781,17.1131496429443,100,0,,,,,B
000000021800004,218,Mierová,,48.1494483947754,17.1678733825684,100,0,,,,,D
000000033400002,334,Radničné nám.,,48.1497955322266,17.1725921630859,100,0,,,,,B
000000033400001,334,Radničné nám.,,48.1499061584473,17.1704998016357,100,0,,,,,A
000000038600002,386,Strojnícka,,48.148624420166,17.1770515441895,100,0,,,,,B
000000038600001,386,Strojnícka,,48.1484794616699,17.177562713623,100,0,,,,,A
000000072000002,720,Hrachová,,48.1474380493164,17.180477142334,100,0,,,,,B
000000072000001,720,Hrachová,,48.1475639343262,17.1802387237549,100,0,,,,,A
000000032400002,324,"Prievoz, most",,48.1456336975098,17.1861038208008,100,0,,,,,B
000000032400001,324,"Prievoz, most",,48.1458854675293,17.1850337982178,100,0,,,,,A
000000003200002,32,Cintorín Vrakuňa,,48.1435356140137,17.1904010772705,100,0,,,,,B
000000003200001,32,Cintorín Vrakuňa,,48.1437950134277,17.1906127929688,100,0,,,,,A
000000073600001,736,Bodvianska,,48.1385307312012,17.2067680358887,101,0,,,,,A
000000073600002,736,Bodvianska,,48.1390495300293,17.2083339691162,101,0,,,,,B
000000015400001,154,Pálenisko,,48.1358642578125,17.1562442779541,100,0,,,,,A
000000074800001,748,Alejová,,48.1383857727051,17.1519680023193,100,0,,,,,A
000000074800002,748,Alejová,,48.1370887756348,17.1525783538818,100,0,,,,,B
000000032600001,326,Nákladný prístav,,48.1414833068848,17.1440773010254,100,0,,,,,A
000000032600002,326,Nákladný prístav,,48.1406631469727,17.1456623077393,100,0,,,,,B
000000029400001,294,Plynárenská,,48.1420593261719,17.1403751373291,100,0,,,,,A
000000029400002,294,Plynárenská,,48.1418037414551,17.142032623291,100,0,,,,,B
000000032700003,327,Prístavná,,48.1421279907227,17.1311702728271,100,0,,,,,C
000000026100010,261,Most SNP,,48.140380859375,17.1043357849121,100,0,,,,,J
000000032700002,327,Prístavná,,48.1423606872559,17.1288566589355,100,0,,,,,B
000000030700002,307,Landererova,,48.1427154541016,17.1236343383789,100,0,,,,,B
000000060700008,607,Nové SND,,48.1421928405762,17.122875213623,100,0,,,,,H
000000060700007,607,Nové SND,,48.1421432495117,17.1234130859375,100,0,,,,,G
000000067100004,671,Schengenská,,48.0225143432617,17.1937808990479,101,0,,,,,D
000000067100003,671,Schengenská,,48.0227966308594,17.1930484771729,101,0,,,,,C
000000064600002,646,"Čunovo, záhrady",,48.0216522216797,17.1979274749756,101,0,,,,,B
000000064600001,646,"Čunovo, záhrady",,48.0216903686523,17.1981525421143,101,0,,,,,A
000000056700002,567,"Čunovo, priehrada",,48.0268096923828,17.2074241638184,101,0,,,,,B
000000056700001,567,"Čunovo, priehrada",,48.0272598266602,17.206413269043,101,0,,,,,A
000000070800002,708,MVE Mošoň,,48.0251388549805,17.2171192169189,101,0,,,,,B
000000070800001,708,MVE Mošoň,,48.0252571105957,17.2171459197998,101,0,,,,,A
000000055900002,559,VE Čunovo,,48.0291442871094,17.2244052886963,101,0,,,,,B
000000055900001,559,VE Čunovo,,48.0292816162109,17.2244338989258,101,0,,,,,A
000000056800001,568,Areál vod. športov,,48.0321006774902,17.229700088501,101,0,,,,,A
000000056800002,568,Areál vod. športov,,48.031608581543,17.228666305542,101,0,,,,,B
000000055800002,558,Danubiana,,48.0333366394043,17.2312965393066,101,0,,,,,B
000000055800001,558,Danubiana,,48.0330581665039,17.2311553955078,101,0,,,,,A
000000023500003,235,Muchovo nám.,,48.129150390625,17.1139755249023,100,0,,,,,C
000000052700001,527,Prokofievova,,48.1157608032227,17.1020069122314,100,0,,,,,A
000000052700002,527,Prokofievova,,48.1159477233887,17.1021633148193,100,0,,,,,B
000000002000001,20,Bosákova,,48.1275825500488,17.1256580352783,100,0,,,,,A
000000002000002,20,Bosákova,,48.126823425293,17.1244373321533,100,0,,,,,B
000000001800006,18,Bojnická,,48.1770515441895,17.1677513122559,100,0,,,,,F
000000036600002,366,Malý Draždiak,,48.1122665405273,17.1213893890381,100,0,,,,,B
000000036600001,366,Malý Draždiak,,48.1121635437012,17.1193752288818,100,0,,,,,A
000000006600002,66,Starý háj,,48.1121864318848,17.1243267059326,100,0,,,,,B
000000006600001,66,Starý háj,,48.1123924255371,17.1234645843506,100,0,,,,,A
000000022500001,225,Mliekarenská,,48.1543121337891,17.1465759277344,100,0,,,,,A
000000034000003,340,Romanova,,48.1172256469727,17.1098918914795,100,0,,,,,C
000000034000004,340,Romanova,,48.1173400878906,17.1103763580322,100,0,,,,,D
